ID,KEYWORD,CITY,CREATED_AT,created_at_local,TEXT,FROM_USER,FROM_USER_NAME,LOCATION,URLS,HASHTAGS,IS_RETWEET,RETWEET_COUNT,FOLLOWERS_COUNT,FRIENDS_COUNT,STATUSES_COUNT,TIME_ZONE,GEO,TO_USER_NAME,IN_REPLY_TO_STATUS_ID,SOURCE,LANGUAGE,Lat,Long
4.6635E+17,fire,San_Diego_40_mi_real,2014-05-13 22:50:20,2014-05-13 14:50:20,"100 degrees, 5% humidity, 20mph winds....perfect fire weather calls for perfect beer :-)... (Damnation) http://t.co/Q4eQJuY8Af",surfhopper,Kim Mitchell,"San Diego, California, USA",http://untp.it/1jYIMO8,,FALSE,,42,148,3921,Alaska,"32.721700,-116.973000",,,Untappd,en,32.7217,-116.973
4.6635E+17,fire,San_Diego_40_mi_real,2014-05-13 22:52:29,2014-05-13 14:52:29,This fire is killing my vibe #BernardoFire,jaywarrenn,$ili›one Jones,San Diego & Provo,,BernardoFire,FALSE,,196,130,1057,Central Time (US & Canada),"33.007257,-117.068047",,,Twitter for iPhone,en,33.007257,-117.068047
4.6635E+17,fire,San_Diego_40_mi_real,2014-05-13 22:52:30,2014-05-13 14:52:30,When your fam is being evacuated do to a raging brush fire fretting over a season finale disappears. #priorities,AllThingsCastle,Alison Hunter,Sunny San Diego,,priorities,FALSE,,63,127,7290,Pacific Time (US & Canada),"32.606217,-117.051354",,,Twitter for iPhone,en,32.606217,-117.051354
4.66351E+17,fire,San_Diego_40_mi_real,2014-05-13 22:54:16,2014-05-13 14:54:16,Tbh I'd rather have school tomorrow and have everyone out of harms way then not have school and have this fire continue.,cayleeevickkk,Caylee,,,,FALSE,1,289,568,3480,,"32.952756,-117.019929",,,Twitter for iPhone,en,32.952756,-117.019929
4.66351E+17,fire,San_Diego_40_mi_real,2014-05-13 22:54:22,2014-05-13 14:54:22,"""Fire in San Diego"" a wild fire is raging in the Santa Luz area which is near my home. I took this one? http://t.co/EIf5kO0JJo",Media4LifeMin,Freddy Winter,"San Diego, California",http://instagram.com/p/n9FpBom0VL/,,FALSE,1,2375,1767,6302,Pacific Time (US & Canada),"32.993797,-117.144744",,,Instagram,en,32.993797,-117.144744
4.66351E+17,fire,San_Diego_40_mi_real,2014-05-13 22:54:57,2014-05-13 14:54:57,Fucking huge fire is about 1.5 miles from my house. about ready to evacuate. I'll be back when I can guys,U_Mad_Bro42,U Mad Bro,"San Diego, CA ",,,FALSE,,728,328,18963,Pacific Time (US & Canada),"33.020533,-117.111130",,,Twitter for iPhone,en,33.020533,-117.11113
4.66351E+17,fire,San_Diego_40_mi_real,2014-05-13 22:55:06,2014-05-13 14:55:06,"?@jordanbarker21: It's not even a fire, it's just all the red heads of the world having a meeting ??? ????????",cayleeevickkk,Caylee,,,,FALSE,,289,568,3480,,"32.952784,-117.019966",,4.66351E+17,Twitter for iPhone,en,32.952784,-117.019966
4.66351E+17,fire,San_Diego_40_mi_real,2014-05-13 22:56:18,2014-05-13 14:56:18,I'm just really confused do people not see that the mountain is on fire? #BravoDelNorteBravo,siaweleski,Tiff,San Diego - Tucson ,,BravoDelNorteBravo,FALSE,,446,351,10011,Alaska,"33.012191,-117.121059",,,Twitter for iPhone,en,33.012191,-117.121059
4.66352E+17,fire,San_Diego_40_mi_real,2014-05-13 22:58:43,2014-05-13 14:58:43,Say a prayer for north san diego cty over 1200 homes businesses and 2 schools evacuated do to the fire 2 zipcodes evacuated 2 moreon alert,scottpookie1975,scott pook randolph,San Diego Cali,,,FALSE,,253,409,4564,Pacific Time (US & Canada),"32.812786,-117.166901",,,Twitter for Android,en,32.812786,-117.166901
4.66352E+17,fire,San_Diego_40_mi_real,2014-05-13 22:59:39,2014-05-13 14:59:39,Artesian Road &amp; Camino del Sur #Bernardo Fire http://t.co/z6ylrnqhb3,sharonchenfox5,Fox 5 Sharon Chen,San Diego,,Bernardo,FALSE,2,882,331,1160,Pacific Time (US & Canada),"33.016009,-117.157227",,,Twitter for iPhone,sk,33.016009,-117.157227
4.66352E+17,fire,San_Diego_40_mi_real,2014-05-13 23:00:15,2014-05-13 15:00:15,THE FIRE LOOKS LIKE SOME SMOKING A MASSIVE JOINT . Someone took  #turntuptuesday to far . #BernardoFire,Ashplss,Ashley Huynh,,,"turntuptuesday, BernardoFire",FALSE,,12,37,147,,"33.004887,-117.112035",,,Twitter for iPad,en,33.004887,-117.112035
4.66353E+17,fire,San_Diego_40_mi_real,2014-05-13 23:01:21,2014-05-13 15:01:21,[Contemplates what to eat while there is a massive fire going on],merlyls,meryl,san diego // ca,,,FALSE,,109,113,1084,Pacific Time (US & Canada),"33.029187,-117.110109",,,Twitter for iPhone,en,33.029187,-117.110109
4.66353E+17,fire,San_Diego_40_mi_real,2014-05-13 23:03:45,2014-05-13 15:03:45,There's a big wildfire near my house and a lot of people are evaluating. But it's finals weeks. I have work to do. The fire can wait.,jaasssperr,Jasper Aaron,HAAAAAAWAAAII,,,FALSE,,219,162,4834,Hawaii,"33.029629,-117.109194",,,Twitter for iPhone,en,33.029629,-117.109194
4.66353E+17,fire,San_Diego_40_mi_real,2014-05-13 23:03:45,2014-05-13 15:03:45,So I went on the fire hunt with my family and yeah http://t.co/KPInnrYx7W,Good13____,?????,Rancho Bernardo ,,,FALSE,,416,228,5266,,"32.990446,-117.159299",,,Twitter for Android,en,32.990446,-117.159299
4.66354E+17,fire,San_Diego_40_mi_real,2014-05-13 23:06:48,2014-05-13 15:06:48,"Great Fire lyrics #748: ""we're on fire now"" --one direction",merlyls,meryl,san diego // ca,,,FALSE,2,109,113,1084,Pacific Time (US & Canada),"33.029235,-117.110100",,,Twitter for iPhone,en,33.029235,-117.1101
4.66354E+17,fire,San_Diego_40_mi_real,2014-05-13 23:08:17,2014-05-13 15:08:17,Im just trying to get to practice but noo this stupid fire is getting in the way,sophieajang,Sophie Ajang,,,,FALSE,,173,316,2922,,"32.950550,-117.243858",,,Twitter for iPhone,en,32.95055,-117.243858
4.66354E+17,fire,San_Diego_40_mi_real,2014-05-13 23:08:59,2014-05-13 15:08:59,I really don't like fire. :(,Rosierap,Rosie Rappaport,Somewhere in San Diego,,,FALSE,,4585,86,444,,"32.966117,-117.115761",,,Twitter for iPhone,en,32.966117,-117.115761
4.66354E+17,fire,San_Diego_40_mi_real,2014-05-13 23:09:07,2014-05-13 15:09:07,UPDATE : SDFIRE SAYS FIRE now at 700 acres,KrisLeFox5,Kristina Le,Sunny San Diego,,,FALSE,2,319,197,890,Pacific Time (US & Canada),"33.002312,-117.112224",,,Twitter for Android,en,33.002312,-117.112224
4.66355E+17,fire,San_Diego_40_mi_real,2014-05-13 23:09:22,2014-05-13 15:09:22,"Can we just have one channel with the fire on it, I don't really care much for news reporting like HERES A FIRE",jTwilla,Twizzle,San Diego,,,FALSE,,116,145,12026,Pacific Time (US & Canada),"32.626564,-117.076576",,,Twitter for iPhone,en,32.626564,-117.076576
4.66355E+17,fire,San_Diego_40_mi_real,2014-05-13 23:11:16,2014-05-13 15:11:16,The fire is burning by Rancho Santa Fe million dollar homes and it's making me so nervous ??,emilyyschramm,Emily Schramm,,,,FALSE,,155,123,609,,"33.009335,-116.786855",,,Twitter for iPhone,en,33.009335,-116.786855
4.66355E+17,fire,San_Diego_40_mi_real,2014-05-13 23:11:18,2014-05-13 15:11:18,Praying the fire doesn't come in the opposite way,Good13____,?????,Rancho Bernardo ,,,FALSE,2,416,228,5266,,"32.961122,-117.152813",,,Twitter for Android,en,32.961122,-117.152813
4.66355E+17,fire,San_Diego_40_mi_real,2014-05-13 23:12:57,2014-05-13 15:12:57,I've got finals tomorrow wtf fire!!!!!!,yelahralo,Haley Olar,San Diego,,,FALSE,,247,185,2612,Pacific Time (US & Canada),"32.959844,-117.116117",,,Twitter for iPhone,en,32.959844,-117.116117
4.66356E+17,fire,San_Diego_40_mi_real,2014-05-13 23:13:21,2014-05-13 15:13:21,Bernardo Fire: Animal information: The Helen Woodward Animal Center is preparing for a possible evacuation due to... http://t.co/VUBzAguK3l,SanDiegoCP,San Diego CP,"San Diego, CA",http://dlvr.it/5fs3Z5,,FALSE,,2905,5,103258,Eastern Time (US & Canada),"32.714312,-117.166272",,,dlvr.it,en,32.714312,-117.166272
4.66356E+17,fire,San_Diego_40_mi_real,2014-05-13 23:13:21,2014-05-13 15:13:21,"Not cool, fire",yelahralo,Haley Olar,San Diego,,,FALSE,,247,185,2612,Pacific Time (US & Canada),"32.964730,-117.124810",,,Twitter for iPhone,en,32.96473,-117.12481
4.66356E+17,fire,San_Diego_40_mi_real,2014-05-13 23:14:14,2014-05-13 15:14:14,?@OkCourtneyy: if you have mueller good luck trying to get out of the junior paper cause of the fire lol?????????,jaayyreyes,J-Blocc,West Coast ,,,FALSE,,178,219,15889,Pacific Time (US & Canada),"32.977569,-117.090879",,4.66355E+17,Twitter for iPhone,en,32.977569,-117.090879
4.66356E+17,fire,San_Diego_40_mi_real,2014-05-13 23:14:15,2014-05-13 15:14:15,I can see #flames from here. Get it out boys! #sandiego #fire (@ Mt Soledad Veterans Memorial) http://t.co/SuIEJNZM1K,inthery,Ryan Siu,All Around.,http://4sq.com/1oMFs9r,"flames, sandiego, fire",FALSE,,266,813,1923,Alaska,"32.839753,-117.244720",,,foursquare,en,32.839753,-117.24472
4.66358E+17,fire,San_Diego_40_mi_real,2014-05-13 23:21:45,2014-05-13 15:21:45,I get to go home if my house is affected by the fire ??????,camsablan,Carmen SanDiego,,,,FALSE,,240,551,2913,Pacific Time (US & Canada),"32.873745,-117.212716",,,Twitter for iPhone,en,32.873745,-117.212716
4.66358E+17,fire,San_Diego_40_mi_real,2014-05-13 23:21:48,2014-05-13 15:21:48,When a fire starts to burn right and it starts to spread..,sofiaschugar,Sofia Schugar,,,,FALSE,1,69,174,331,Pacific Time (US & Canada),"32.934052,-117.203184",,,Twitter for iPhone,en,32.934052,-117.203184
4.66358E+17,fire,San_Diego_40_mi_real,2014-05-13 23:23:06,2014-05-13 15:23:06,Thank god for all the fire engines &amp; workers!! #bernardofire http://t.co/1TqF6WXAkX,CorinneWalder,Corinne Walder,California,,bernardofire,FALSE,,1794,299,4024,Hawaii,"33.020985,-117.118459",,,Twitter for iPhone,en,33.020985,-117.118459
4.66358E+17,fire,San_Diego_40_mi_real,2014-05-13 23:23:46,2014-05-13 15:23:46,Praying for everybody being affected by this huge fire... http://t.co/IjXXs7qzFm,reinaatharanii,Reina Tharani,,,,FALSE,,119,196,5222,Hawaii,"32.979715,-117.076029",,,Twitter for iPhone,en,32.979715,-117.076029
4.66358E+17,fire,San_Diego_40_mi_real,2014-05-13 23:24:06,2014-05-13 15:24:06,When my twitter feed is full of brush fire tweets when the fire is nowhere close to me but keep calm and stay safe everyone ??????,aratiiii,Aratiiii ,,,,FALSE,,206,261,799,Pacific Time (US & Canada),"32.651364,-117.023270",,,Twitter for Android,en,32.651364,-117.02327
4.66359E+17,fire,San_Diego_40_mi_real,2014-05-13 23:25:39,2014-05-13 15:25:39,Praying for our friends and the firefighters in the path of the fire.,SanDiegoLandUse,Marcela Escobar-Eck,San Diego,,,FALSE,2,421,390,8382,Pacific Time (US & Canada),"32.736971,-117.214863",,,Twitter for iPhone,en,32.736971,-117.214863
4.66359E+17,fire,San_Diego_40_mi_real,2014-05-13 23:26:18,2014-05-13 15:26:18,"But in all seriousness, I hope no one gets affected too much by this fire, and I'm extremely thankful for the firefighters for what they do!",gloria_657,Gloria Yehilevsky,"Morehead, KY",,,FALSE,,166,202,860,Eastern Time (US & Canada),"33.003724,-117.022993",,,Twitter for iPhone,en,33.003724,-117.022993
4.66359E+17,fire,San_Diego_40_mi_real,2014-05-13 23:28:10,2014-05-13 15:28:10,"San Diego is awesome, until it goes up in flames http://t.co/Uq2AUBXRmB",jess_carilli,Jessica Carilli,"Encinitas, CA",http://m.utsandiego.com/news/2014/may/13/canyon-fire-del-norte-high-nighthawk/,,FALSE,,600,507,3384,Sydney,"33.041511,-117.272945",,,Twitter for iPhone,en,33.041511,-117.272945
4.6636E+17,fire,San_Diego_40_mi_real,2014-05-13 23:29:11,2014-05-13 15:29:11,"#BernardoFire update. RT @UTsandiego County says more than 20,000 homes evacuated as Bernardo fire reaches 700 acres. http://t.co/YNCqqRYLOp",ScrippsHealth,Scripps Health,"San Diego, CA",http://utsd.us/RNhYpy,BernardoFire,FALSE,5,17729,6230,6633,Pacific Time (US & Canada),"32.887121,-117.223501",,4.66358E+17,Twitter for iPhone,en,32.887121,-117.223501
4.6636E+17,fire,San_Diego_40_mi_real,2014-05-13 23:29:38,2014-05-13 15:29:38,@michellefilanc Fire rager!!! ?? Only if I can sleep in marks bed tho,xoxomadi,Madi Smith,,,,FALSE,,123,375,2567,Alaska,"32.964745,-117.191783",,4.66359E+17,Twitter for iPhone,en,32.964745,-117.191783
4.6636E+17,fire,San_Diego_40_mi_real,2014-05-13 23:30:04,2014-05-13 15:30:04,When i said die i didnt expect a fire to explode.... Oops... Stay safe everyone!,nghia_le106,Nghia Le,,,,FALSE,,32,39,351,,"32.922976,-117.140371",,,Twitter for iPhone,en,32.922976,-117.140371
4.6636E+17,fire,San_Diego_40_mi_real,2014-05-13 23:30:56,2014-05-13 15:30:56,"@jerrydoyle Hi Jerry, keep San Diego &amp; our 1st responders in UR thoughts (Bernardo fire ). A lot of evacs. even H Woodward is prepping.  
.",Ana747West,Ana Luisa West,La Mesa CA,,,FALSE,,19,65,966,Pacific Time (US & Canada),"32.782833,-117.020061",,,Twitter for Android,en,32.782833,-117.020061
4.66361E+17,fire,San_Diego_40_mi_real,2014-05-13 23:35:51,2014-05-13 15:35:51,Emergency evacuation from work. San Diego is on fire!!,Dear_Deanna,Deanna Phouthavone,"San Diego, CA ??",,,FALSE,,228,205,5464,Pacific Time (US & Canada),"32.827828,-117.141081",,,Twitter for iPhone,en,32.827828,-117.141081
4.66362E+17,fire,San_Diego_40_mi_real,2014-05-13 23:38:27,2014-05-13 15:38:27,@Angiemichail there's a fire?,SamawiWowee,Robert Samawi,,,,FALSE,,252,271,4769,Pacific Time (US & Canada),"32.742194,-116.936339",,4.66357E+17,Twitter for iPhone,en,32.742194,-116.936339
4.66362E+17,fire,San_Diego_40_mi_real,2014-05-13 23:39:16,2014-05-13 15:39:16,Wow there's a fire? Wanna go get Starbucks? @RachelHLewis,Sabrina_Silva96,Sabrina Silva,California,,,FALSE,,74,128,1000,Arizona,"32.946038,-117.204317",,,Twitter for iPhone,en,32.946038,-117.204317
4.66362E+17,fire,San_Diego_40_mi_real,2014-05-13 23:39:52,2014-05-13 15:39:52,My mom is trying to prepare for this fire like she can,sara_alyassin,sara alyassin,cali,,,FALSE,,82,92,2037,,"32.981775,-117.077484",,,Twitter for iPhone,en,32.981775,-117.077484
4.66362E+17,fire,San_Diego_40_mi_real,2014-05-13 23:39:52,2014-05-13 15:39:52,some fire,FuckCedric,?,,,,FALSE,,171,131,1973,Arizona,"32.921583,-117.132759",,,Twitter for iPhone,en,32.921583,-117.132759
4.66362E+17,fire,San_Diego_40_mi_real,2014-05-13 23:40:18,2014-05-13 15:40:18,Ugh you can smell the 4S fire on campus 0.0,rawlambshank,Chris Purcell,"La Jolla, California",,,FALSE,,54,61,8986,Pacific Time (US & Canada),"32.878093,-117.238030",,,Twitter for iPhone,en,32.878093,-117.23803
4.66362E+17,fire,San_Diego_40_mi_real,2014-05-13 23:40:28,2014-05-13 15:40:28,SOME RADIO STATION IS PLAYING THE BURNING RING OF FIRE NO CHILL,FuckCedric,?,,,,FALSE,,171,131,1973,Arizona,"32.921044,-117.132450",,,Twitter for iPhone,en,32.921044,-117.13245
4.66362E+17,fire,San_Diego_40_mi_real,2014-05-13 23:40:54,2014-05-13 15:40:54,Near Franzen Farm Road.  Fire approaching homes in valley #BernardoFire http://t.co/UoqTKGtGGp,sharonchenfox5,Fox 5 Sharon Chen,San Diego,,BernardoFire,FALSE,1,883,331,1160,Pacific Time (US & Canada),"33.014579,-117.153395",,,Twitter for iPhone,en,33.014579,-117.153395
4.66363E+17,fire,San_Diego_40_mi_real,2014-05-13 23:41:30,2014-05-13 15:41:30,Praying for all those working on the fire and those affected. Stay safe everyone ??,sweetpea600,Lily Lee Johnson,,,,FALSE,,202,193,5650,Quito,"33.021304,-117.117471",,,Twitter for iPhone,en,33.021304,-117.117471
4.66363E+17,fire,San_Diego_40_mi_real,2014-05-13 23:41:40,2014-05-13 15:41:40,Idk if I should go to the gym. This fire shit set me back from all the things I wanted to do today before class. Plus I have a headache,jaasssperr,Jasper Aaron,HAAAAAAWAAAII,,,FALSE,,219,162,4834,Hawaii,"33.029563,-117.109096",,,Twitter for iPhone,en,33.029563,-117.109096
4.66363E+17,fire,San_Diego_40_mi_real,2014-05-13 23:42:03,2014-05-13 15:42:03,I  can smell the smoke as soon as I walk out of my office in sorento valley #fire #fireseason #sandiego,dannyraylima,Danny Ray Lima,San diego,,"fire, fireseason, sandiego",FALSE,,466,1353,1848,Pacific Time (US & Canada),"32.868499,-117.198170",,,iOS,en,32.868499,-117.19817
4.66363E+17,fire,San_Diego_40_mi_real,2014-05-13 23:42:45,2014-05-13 15:42:45,@WinchesterBros And 1 piece of good news: friend reunited w/ her son. He'd been evac'd to one HS. Fire caused them 2 evac 2 another center.,Ana747West,Ana Luisa West,La Mesa CA,,,FALSE,,19,65,969,Pacific Time (US & Canada),"32.782826,-117.020058",,4.66328E+17,Twitter for Android,en,32.782826,-117.020058
4.66363E+17,fire,San_Diego_40_mi_real,2014-05-13 23:43:47,2014-05-13 15:43:47,"The start of #fire season 2014. #sandiego @ San Diego, CA http://t.co/zU6n14ITwK",abeiner11,Annie ,,http://instagram.com/p/n9LTAOPTDw/,"fire, sandiego",FALSE,,85,223,821,Pacific Time (US & Canada),"33.012248,-117.266850",,,Instagram,en,33.012248,-117.26685
4.66363E+17,fire,San_Diego_40_mi_real,2014-05-13 23:44:14,2014-05-13 15:44:14,Things we lost in the fire,CassandraJerome,cassy jerome,C?LIFèRNI?,,,FALSE,1,139,244,1613,Arizona,"32.971957,-117.086870",,,Twitter for iPhone,en,32.971957,-117.08687
4.66364E+17,fire,San_Diego_40_mi_real,2014-05-13 23:45:15,2014-05-13 15:45:15,I think this fire really brought us together guys.,CassandraJerome,cassy jerome,C?LIFèRNI?,,,FALSE,,139,244,1613,Arizona,"32.971946,-117.087010",,,Twitter for iPhone,en,32.971946,-117.08701
4.66364E+17,fire,San_Diego_40_mi_real,2014-05-13 23:46:17,2014-05-13 15:46:17,@NBCJodi couldn't help but notice that the fire is showing up on the radar map. http://t.co/3rZwpx0QqF,BookerTdub,Tom Wellman,"San Diego, CA",,,FALSE,,102,262,6007,Pacific Time (US & Canada),"32.960083,-117.266046",,,Twitter for Android,en,32.960083,-117.266046
4.66364E+17,fire,San_Diego_40_mi_real,2014-05-13 23:46:18,2014-05-13 15:46:18,Fire....fire....fire in San Diego.... Oooh fire...!,AbdulTConteh,Abdul T Conteh,"San Diego, California",,,FALSE,,1604,935,18636,Eastern Time (US & Canada),"32.747521,-117.116044",,,Twitter for iPhone,it,32.747521,-117.116044
4.66364E+17,fire,San_Diego_40_mi_real,2014-05-13 23:46:39,2014-05-13 15:46:39,@kheiligh thanks Ben ya it moved west of us. Fire started about mile away from my house.,ace,Aldryn Estacio,San Diego,,,FALSE,,647,308,413,Pacific Time (US & Canada),"33.013393,-117.150898",,4.66341E+17,Twitter for iPhone,en,33.013393,-117.150898
4.66364E+17,fire,San_Diego_40_mi_real,2014-05-13 23:48:50,2014-05-13 15:48:50,"Farthest SE I have seen the #fire, this is east of westview high school @ Black Mountain Open Space? http://t.co/xGL7Q1Ygtw",danmcguffin,Danny McGuffin,"šT: 32.894246,-117.197473",http://instagram.com/p/n9L38RDA1c/,fire,FALSE,,407,228,9909,Pacific Time (US & Canada),"32.988054,-117.129447",,,Instagram,en,32.988054,-117.129447
4.66366E+17,fire,San_Diego_40_mi_real,2014-05-13 23:53:09,2014-05-13 15:53:09,Fire heading towards via a la Casa and el sicomoro st #nbc7,stevenlukenbc,Steven Luke,"San Diego, California",,nbc7,FALSE,3,2031,879,1567,,"33.011527,-117.192808",,,Twitter for iPhone,en,33.011527,-117.192808
4.66366E+17,fire,San_Diego_40_mi_real,2014-05-13 23:56:02,2014-05-13 15:56:02,Chase Field will live through this fire,CRB_5,Chase Bushor,,,,FALSE,3,225,240,151,,"33.005567,-117.209497",,,Twitter for iPhone,en,33.005567,-117.209497
4.66366E+17,fire,San_Diego_40_mi_real,2014-05-13 23:56:35,2014-05-13 15:56:35,S/o to those fierce firemen and women who are kicking fire butt rn.,CassandraJerome,cassy jerome,C?LIFèRNI?,,,FALSE,,139,244,1613,Arizona,"32.971767,-117.087296",,,Twitter for iPhone,en,32.971767,-117.087296
4.66367E+17,fire,San_Diego_40_mi_real,2014-05-13 23:56:55,2014-05-13 15:56:55,@rachyyface @EddieFilms @olivia_smith97 @lolalovesalot12 @jaysquivel @fgissuperman1 currently I'm not on fire ????,Nesnejwerdna,Nesnejwerdna,Halloween Town,,,FALSE,,138,395,4723,Pacific Time (US & Canada),"32.959907,-117.039926",,4.66365E+17,Twitter for iPhone,en,32.959907,-117.039926
4.66367E+17,fire,San_Diego_40_mi_real,2014-05-13 23:57:07,2014-05-13 15:57:07,Huge fire and my dad still wants to turn the channel and watch basketball,karleebaggs,kar,,,,FALSE,,387,407,9050,Arizona,"33.005017,-117.077997",,,Twitter for iPhone,en,33.005017,-117.077997
4.66367E+17,fire,San_Diego_40_mi_real,2014-05-13 23:57:56,2014-05-13 15:57:56,East coast has snow days.. West coast has fire days..,Bri_Wineteer,Bri Marie,"San Diego, California",,,FALSE,7,9079,60,9074,Pacific Time (US & Canada),"32.960378,-117.265744",,,Twitter for iPhone,en,32.960378,-117.265744
4.66367E+17,fire,San_Diego_40_mi_real,2014-05-13 23:58:18,2014-05-13 15:58:18,Shout out to all of the firefighters risking their lives today to contain and put out this fire. #BernardoFire,frick_no,ya girl,Southern California,,BernardoFire,FALSE,1,740,530,91128,Pacific Time (US & Canada),"32.955009,-117.093677",,,Twitter for iPhone,en,32.955009,-117.093677
4.66367E+17,fire,San_Diego_40_mi_real,2014-05-13 23:58:33,2014-05-13 15:58:33,@henleyco @fox5sandiego @KathleenFOX5 @jaimechambers Hi I'm right off of Artesian Road and the fire is burning towards it now.,sharonchenfox5,Fox 5 Sharon Chen,San Diego,,,FALSE,,883,331,1160,Pacific Time (US & Canada),"33.015697,-117.158536",,4.66366E+17,Twitter for iPhone,en,33.015697,-117.158536
4.66367E+17,fire,San_Diego_40_mi_real,2014-05-13 23:58:41,2014-05-13 15:58:41,It for today- bad fire http://t.co/NmlcDZT5rN,su_maja,Tamara Su Heath Maja,,,,FALSE,,21,9,4188,,"32.817358,-117.173550",,,iOS,en,32.817358,-117.17355
4.66368E+17,fire,San_Diego_40_mi_real,2014-05-14 00:01:17,2014-05-13 16:01:17,So there's a fire in san diego and the area where i'm staying was ordered to evacuate lawl. fml.,vsndr,Andr‚a,,,,FALSE,,40,69,2266,Eastern Time (US & Canada),"32.984549,-117.087773",,,Twitter for iPhone,en,32.984549,-117.087773
4.66368E+17,fire,San_Diego_40_mi_real,2014-05-14 00:01:31,2014-05-13 16:01:31,Yay. Fire season ??,its_CharlotteTW,Charlotte,"California, United States",,,FALSE,,888,1493,10677,Pacific Time (US & Canada),"32.830284,-117.130564",,,Twitter for iPhone,en,32.830284,-117.130564
4.66368E+17,fire,San_Diego_40_mi_real,2014-05-14 00:01:58,2014-05-13 16:01:58,"@henleyco @fox5sandiego @KathleenFOX5 @jaimechambers Hi Nicole, that is close to where we are.   Fire crews are working hard! #sdfire",sharonchenfox5,Fox 5 Sharon Chen,San Diego,,sdfire,FALSE,,883,331,1160,Pacific Time (US & Canada),"33.014597,-117.153352",,4.66367E+17,Twitter for iPhone,en,33.014597,-117.153352
4.66368E+17,fire,San_Diego_40_mi_real,2014-05-14 00:04:35,2014-05-13 16:04:35,California's on fire? Shocker,charisisforlove,Charis Roberts,sandy eggo,,,FALSE,,293,270,14882,Pacific Time (US & Canada),"32.688007,-117.125682",,,Twitter for iPhone,en,32.688007,-117.125682
4.66369E+17,fire,San_Diego_40_mi_real,2014-05-14 00:05:19,2014-05-13 16:05:19,#sandiego is on fucken #fire... again,karloakakarlo,Karlo,San Diego,,"sandiego, fire",FALSE,,82,202,1287,Hawaii,"32.884963,-117.203202",,,Twitter for Android,en,32.884963,-117.203202
4.66369E+17,fire,San_Diego_40_mi_real,2014-05-14 00:06:00,2014-05-13 16:06:00,"OK people, stay away from the N County fire and let the first responders do their jobs!",JeromeStocks,Jerome Stocks,Encinitas,,,FALSE,,272,513,943,,"33.040859,-117.258517",,,Twitter for iPhone,en,33.040859,-117.258517
4.66369E+17,fire,San_Diego_40_mi_real,2014-05-14 00:07:41,2014-05-13 16:07:41,"Who's worried about the fire when you have the gym to go too, and workout :)",Hurleybro47,Daniel jaramillo,,,,FALSE,,49,172,101,,"32.979992,-117.042383",,,Twitter for iPhone,en,32.979992,-117.042383
4.6637E+17,fire,San_Diego_40_mi_real,2014-05-14 00:09:47,2014-05-13 16:09:47,96 degrees windy and a huge fire greattttt,isaachoppee,hoppe,,,,FALSE,,75,73,1443,Arizona,"32.931589,-117.149304",,,Twitter for iPhone,en,32.931589,-117.149304
4.66371E+17,fire,San_Diego_40_mi_real,2014-05-14 00:15:54,2014-05-13 16:15:54,This is not the kind of Aztec Fire we like. Stay safe everyone. #BernardoFire,marchingaztecs,SDSU Marching Aztecs,"San Diego, CA",,BernardoFire,FALSE,2,1157,320,1430,Pacific Time (US & Canada),"32.933276,-117.070869",,,Twitter for iPhone,en,32.933276,-117.070869
4.66372E+17,fire,San_Diego_40_mi_real,2014-05-14 00:17:51,2014-05-13 16:17:51,Why do we look like we finna drop the most fire album of 2014? http://t.co/3exuQh13bE,caleb_joubert,Caleb D. Joubert,"San Diego, CA",,,FALSE,1,300,290,2827,Arizona,"32.765367,-116.935909",,,Twitter for iPhone,en,32.765367,-116.935909
4.66373E+17,fire,San_Diego_40_mi_real,2014-05-14 00:22:59,2014-05-13 16:22:59,my horse is safely in the trailer and heading up to Oceanside to avoid the smoke and fire??,HaleyNute,hales,"San Diego, CA",,,FALSE,,398,201,7312,,"32.974011,-117.224301",,,Twitter for iPhone,en,32.974011,-117.224301
4.66373E+17,fire,San_Diego_40_mi_real,2014-05-14 00:23:12,2014-05-13 16:23:12,Think I'll wait the fire out here. (@ Offshore Tavern &amp; Grill) http://t.co/H1C1ef0QwO,patrickincbts,Patrick Morrissey,"Somewhere in San Diego, CA",http://4sq.com/1lv8t8F,,FALSE,,58,181,1927,Pacific Time (US & Canada),"32.785858,-117.206203",,,foursquare,en,32.785858,-117.206203
4.66374E+17,fire,San_Diego_40_mi_real,2014-05-14 00:25:47,2014-05-13 16:25:47,Praying for the birds out there. Get away from the fire birdies! ??,cerelaguiriba,Cerela,San Diego,,,FALSE,,133,181,40077,Alaska,"33.035390,-117.077228",,,Twitter for iPhone,en,33.03539,-117.077228
4.66374E+17,fire,San_Diego_40_mi_real,2014-05-14 00:26:56,2014-05-13 16:26:56,View of fire from la sencilla and Lina del cielo http://t.co/QvxPlO1Pjn,nmcvicke,Nicholas McVicker,San Diego,,,FALSE,,223,436,833,,"33.014035,-117.211542",,,Twitter for iPhone,en,33.014035,-117.211542
4.66374E+17,fire,San_Diego_40_mi_real,2014-05-14 00:28:11,2014-05-13 16:28:11,Some reporter just compared the brush fire to a war zone....,SomeGuy1910,Cameron Neuendorff,San Diego,,,FALSE,,174,222,6296,,"32.827999,-117.093630",,,Twitter for Android,en,32.827999,-117.09363
4.66375E+17,fire,San_Diego_40_mi_real,2014-05-14 00:29:45,2014-05-13 16:29:45,Stay safe everyone! ?? #wildfire #bernardofire #northcountysandiego #socalfire #fire #evacuationlist @? http://t.co/WD8yHSJ7NF,cerelaguiriba,Cerela,San Diego,http://instagram.com/p/n9Qjorliy3/,"wildfire, bernardofire, northcountysandiego, socalfire, fire, evacuationlist",FALSE,,133,181,40076,Alaska,"32.987453,-117.083221",,,Instagram,en,32.987453,-117.083221
4.66375E+17,fire,San_Diego_40_mi_real,2014-05-14 00:31:14,2014-05-13 16:31:14,LIVE STREAM: Bernardo Fire latest and evacuation information: Wind-stoked flames tore over open swaths of land in... http://t.co/DFHwZTrLWR,SanDiegoCP,San Diego CP,"San Diego, CA",http://dlvr.it/5ft8vc,,FALSE,,2905,5,103258,Eastern Time (US & Canada),"32.714312,-117.166272",,,dlvr.it,en,32.714312,-117.166272
4.66375E+17,fire,San_Diego_40_mi_real,2014-05-14 00:31:48,2014-05-13 16:31:48,Went to go look at the fire,ItalianSUS,Luca,,,,FALSE,,162,208,15518,Pacific Time (US & Canada),"32.920827,-117.077863",,,Twitter for Android,en,32.920827,-117.077863
4.66375E+17,fire,San_Diego_40_mi_real,2014-05-14 00:32:00,2014-05-13 16:32:00,@Zane_Nathaniel yeah that I understand but the fire has not burned any houses nor extremely out of control,SomeGuy1910,Cameron Neuendorff,San Diego,,,FALSE,,174,222,6296,,"32.827959,-117.093610",,4.66375E+17,Twitter for Android,en,32.827959,-117.09361
4.66376E+17,fire,San_Diego_40_mi_real,2014-05-14 00:33:01,2014-05-13 16:33:01,The anemometer spinning fast. So windy with hot dry air. Hopefully the fire doesn't spread any? http://t.co/SX46wEvZ38,BenjArriola,Benj Arriola,"32.956848,-96.742348",http://instagram.com/p/n9Q7ouNrNG/,,FALSE,,1714,1500,4591,Tijuana,"32.910470,-117.115252",,,Instagram,en,32.91047,-117.115252
4.66376E+17,fire,San_Diego_40_mi_real,2014-05-14 00:34:10,2014-05-13 16:34:10,@fox5sandiego crazy fire http://t.co/3oaguqfduj,YOOHOOUSA,Sina Salemian,,,,FALSE,,52,44,317,,"33.026468,-117.121907",,,Twitter for iPhone,en,33.026468,-117.121907
4.66376E+17,fire,San_Diego_40_mi_real,2014-05-14 00:34:22,2014-05-13 16:34:22,Fucking asians are probably waiting for the fire to come close enough for them to cook rice before they leave,LeKevinFang,kVn,San Diego,,,FALSE,,146,144,2636,,"32.789616,-117.160653",,,Twitter for iPhone,en,32.789616,-117.160653
4.66376E+17,fire,San_Diego_40_mi_real,2014-05-14 00:34:32,2014-05-13 16:34:32,"?@hallieegrace: my dad is a captain on the fire, he said that it only gonna get worse when the winds shift later tonight? and were fucked",liz7322tweet,Elizabeth Wachira,"San Diego, California",,,FALSE,,80,73,182,,"32.974961,-117.094054",,4.66374E+17,Twitter for iPhone,en,32.974961,-117.094054
4.66376E+17,fire,San_Diego_40_mi_real,2014-05-14 00:35:02,2014-05-13 16:35:02,someone get some goggles cause this is fire,BonettClawd,....bonettclawd,,,,FALSE,,28,91,247,,"32.613227,-117.054457",,,Twitter for iPhone,en,32.613227,-117.054457
4.66376E+17,fire,San_Diego_40_mi_real,2014-05-14 00:35:15,2014-05-13 16:35:15,I can now tell my professor that my essay burned in the fire and be %?? honest,velavee, V ,San Diego,,,FALSE,,165,176,6748,Pacific Time (US & Canada),"32.942970,-117.227380",,,Twitter for iPhone,en,32.94297,-117.22738
4.66377E+17,fire,San_Diego_40_mi_real,2014-05-14 00:38:01,2014-05-13 16:38:01,Fire?  Yes!,toitzman,Teddy Oitzman,,,,FALSE,,209,118,666,,"32.721811,-117.143813",,,Twitter for iPhone,en,32.721811,-117.143813
4.66377E+17,fire,San_Diego_40_mi_real,2014-05-14 00:39:25,2014-05-13 16:39:25,Whooaaa that fire was so close to Del Norte........,Jackpisano_,Jack Paisano,SanDiego,,,FALSE,,603,476,16629,Pacific Time (US & Canada),"33.002274,-117.101245",,,Twitter for iPhone,en,33.002274,-117.101245
4.66379E+17,fire,San_Diego_40_mi_real,2014-05-14 00:46:23,2014-05-13 16:46:23,"Bernardo Fire Evacuations, Street Closures: More than 20,000 homes and residences are being evacuated due to the... http://t.co/Fhw8HF8iSj",SanDiegoCP,San Diego CP,"San Diego, CA",http://dlvr.it/5ftLy9,,FALSE,1,2905,5,103258,Eastern Time (US & Canada),"32.714312,-117.166272",,,dlvr.it,en,32.714312,-117.166272
4.6638E+17,fire,San_Diego_40_mi_real,2014-05-14 00:49:52,2014-05-13 16:49:52,Would greatly appreciate a detailed map (from any SD TV station) showing the acreage of today's fire.,DalePeterson7,Dale Peterson,San Diego-Nevada-Brisbane,,,FALSE,,634,807,1749,,"32.795966,-117.007414",,,Twitter for iPhone,en,32.795966,-117.007414
4.6638E+17,fire,San_Diego_40_mi_real,2014-05-14 00:51:17,2014-05-13 16:51:17,At least the fire calmed down.,anthony_cabrito,Anthony Cabrito,,,,FALSE,,119,117,632,,"32.965026,-117.177706",,,Twitter for iPhone,en,32.965026,-117.177706
4.66381E+17,fire,San_Diego_40_mi_real,2014-05-14 00:53:40,2014-05-13 16:53:40,Someone's going to be in the hot seat for this...  http://t.co/CvVzEs9yzb,LegSecCC,SASSYGIRLSD,San Diego,http://m.utsandiego.com/news/2014/may/13/fire-in-your-pants-app-san-diego-county-evacuation/,,FALSE,,27,54,327,,"32.721501,-117.175360",,,Twitter for iPhone,en,32.721501,-117.17536
4.66382E+17,fire,San_Diego_40_mi_real,2014-05-14 00:56:42,2014-05-13 16:56:42,Fuck that fire up in north SD looks bad..,CollinClack3,C-lack,,,,FALSE,,373,275,14767,Pacific Time (US & Canada),"32.734872,-117.238286",,,Twitter for iPhone,en,32.734872,-117.238286
4.66382E+17,fire,San_Diego_40_mi_real,2014-05-14 00:58:07,2014-05-13 16:58:07,lol ?@10News: Did anyone else get this 'fire in your pants' alert from the county? / @10NewsSeverance #BernardoFire http://t.co/VIly1suz48?,gbatuyong,Glenn Batuyong,"Chula Vista, CA",,BernardoFire,FALSE,3,1284,892,18585,Pacific Time (US & Canada),"32.661327,-116.960719",,4.66378E+17,Twitter for iPhone,en,32.661327,-116.960719
4.66383E+17,fire,San_Diego_40_mi_real,2014-05-14 01:00:28,2014-05-13 17:00:28,"#BernardoFire burning dangerously close to homes. 20,000 homes evacuated as 700-acre fire roars in San Diego County http://t.co/tcQhXTb3aa",Curiela,? Mariana Curiela ? ,Mexico,,BernardoFire,FALSE,,190,277,6126,Pacific Time (US & Canada),"32.986527,-117.231327",,,Twitter for iPhone,en,32.986527,-117.231327
4.66383E+17,fire,San_Diego_40_mi_real,2014-05-14 01:03:40,2014-05-13 17:03:40,Watching the helicopters dump water on the fire.   http://t.co/PqWy40m9U5,DarenSorenson,Daren Sorenson,SoCal,http://twitpic.com/e3quh4,,FALSE,1,11899,378,17276,Pacific Time (US & Canada),"33.003949,-117.198551",,,Twittelator,en,33.003949,-117.198551
4.66384E+17,fire,San_Diego_40_mi_real,2014-05-14 01:04:41,2014-05-13 17:04:41,Ugh I have to evacuate from the house bc of this fire ????,caambriiaa,CAMBRIA NEIDERMAYER,,,,FALSE,1,1242,273,11370,Eastern Time (US & Canada),"32.953011,-117.110361",,,Twitter for iPhone,en,32.953011,-117.110361
4.66386E+17,fire,San_Diego_40_mi_real,2014-05-14 01:14:03,2014-05-13 17:14:03,"Fires in del sur, reminds me of the witch creek fire in 2007 #FenceAwayFromLoosingMyHouse #ScaryAsShit",allison052994,Allison Matarrese,california,,"FenceAwayFromLoosingMyHouse, ScaryAsShit",FALSE,,84,144,1812,Arizona,"33.032991,-117.084635",,,Twitter for iPhone,en,33.032991,-117.084635
4.66386E+17,fire,San_Diego_40_mi_real,2014-05-14 01:14:19,2014-05-13 17:14:19,"I can't even cope with the news talking about the fire   ""The firefight will go into the night""",Nesnejwerdna,Nesnejwerdna,Halloween Town,,,FALSE,,138,395,4723,Pacific Time (US & Canada),"33.022191,-117.114960",,,Twitter for iPhone,en,33.022191,-117.11496
4.66386E+17,fire,San_Diego_40_mi_real,2014-05-14 01:14:47,2014-05-13 17:14:47,@RSF_Fire what area is 5% contained?,johngfriedrich,John Friedrich,"Los Angeles, CA",,,FALSE,,4081,319,1467,Alaska,"32.809455,-117.244409",,4.66357E+17,Twitter for iPhone,en,32.809455,-117.244409
4.66386E+17,fire,San_Diego_40_mi_real,2014-05-14 01:15:15,2014-05-13 17:15:15,@RSF_Fire what is the status of gate 6 in fairbanks ranch?,johngfriedrich,John Friedrich,"Los Angeles, CA",,,FALSE,,4081,319,1467,Alaska,"32.809346,-117.244483",,4.66357E+17,Twitter for iPhone,en,32.809346,-117.244483
4.66387E+17,fire,San_Diego_40_mi_real,2014-05-14 01:17:30,2014-05-13 17:17:30,please stop making jokes about the fire- it's very serious especially to those of us who are affected and had to evacuate,elippoldt,elizabeth lippoldt,,,,FALSE,,104,120,486,,"32.725157,-117.208919",,,Twitter for iPhone,en,32.725157,-117.208919
4.66387E+17,fire,San_Diego_40_mi_real,2014-05-14 01:18:02,2014-05-13 17:18:02,We don't need to stay in a hotel. The fire has passed us. I think my mom is just trying to take a mini vacation,austinhurder,Austin Hur?,Tempe AZ,,,FALSE,,347,321,3087,Pacific Time (US & Canada),"32.956708,-117.092548",,,Twitter for iPhone,en,32.956708,-117.092548
4.66388E+17,fire,San_Diego_40_mi_real,2014-05-14 01:21:40,2014-05-13 17:21:40,I hope they put the fire out ????,sophieajang,Sophie Ajang,,,,FALSE,,173,316,2922,,"32.976299,-117.269550",,,Twitter for iPhone,en,32.976299,-117.26955
4.66388E+17,fire,San_Diego_40_mi_real,2014-05-14 01:23:58,2014-05-13 17:23:58,Helping with the fire (@ San Diego Police Department Traffic Division) http://t.co/Rgh8AkQMXj,miketsd,Mike Torres,"San Diego, CA",http://4sq.com/1iJZzQ9,,FALSE,,45,197,1456,Pacific Time (US & Canada),"32.809100,-117.127104",,,foursquare,en,32.8091,-117.127104
4.66389E+17,fire,San_Diego_40_mi_real,2014-05-14 01:27:20,2014-05-13 17:27:20,For some reason I feel like I'm doing wrong smoking when there's a fire going on.,cerelaguiriba,Cerela,San Diego,,,FALSE,,133,181,40077,Alaska,"32.963730,-117.136220",,,Twitter for iPhone,en,32.96373,-117.13622
4.6639E+17,fire,San_Diego_40_mi_real,2014-05-14 01:28:18,2014-05-13 17:28:18,Live news conference on Bernardo Fire burning in San Diego at 6:30 on http://t.co/MuoDs15Sce http://t.co/33EB7tqLsC,SandraMaas,Sandra Maas,"San Diego, CA",http://Kusi.com,,FALSE,3,390,158,135,Pacific Time (US & Canada),"32.823062,-117.122638",,,Twitter for iPhone,en,32.823062,-117.122638
4.6639E+17,fire,San_Diego_40_mi_real,2014-05-14 01:31:06,2014-05-13 17:31:06,The purple is where the fire is. I live right off of Poway road... Evacuations are about to happen.. #CaliProbz http://t.co/7Wg3bQjDz3,yellllla,Danielle Searcy,"San Diego, Ca ????",,CaliProbz,FALSE,,133,278,1234,,"32.943461,-117.086750",,,Twitter for iPhone,en,32.943461,-117.08675
4.66391E+17,fire,San_Diego_40_mi_real,2014-05-14 01:35:38,2014-05-13 17:35:38,We are evacuated. How do you know when it is ok to go home? #pq #BernardoFire #penasquitos #SanDiego #fire,AngieRobert,Angie Robert,San Diego,,"pq, BernardoFire, penasquitos, SanDiego, fire",FALSE,3,2110,2159,23165,Alaska,"32.966367,-117.023582",,,Twitter for iPhone,en,32.966367,-117.023582
4.66392E+17,fire,San_Diego_40_mi_real,2014-05-14 01:36:40,2014-05-13 17:36:40,@robsterdizzle fire in campo ?!,MichaelDingle1,Howard IV,,,,FALSE,,257,251,4877,,"32.809487,-116.766225",,,Twitter for iPhone,it,32.809487,-116.766225
4.66394E+17,fire,San_Diego_40_mi_real,2014-05-14 01:46:45,2014-05-13 17:46:45,Burnúing  /b?rniNG/ adjective: On fire ??   Apparently the Bernardo Fire is on Fire.  #Redundancy #NBC7? http://t.co/eon7zQ5co5,PerfectChark,Chava,"San Diego, CA",http://instagram.com/p/n9ZXqmS2C7/,"Redundancy, NBC7",FALSE,,6,14,194,,"32.908582,-117.190083",,,Instagram,en,32.908582,-117.190083
4.66394E+17,fire,San_Diego_40_mi_real,2014-05-14 01:48:07,2014-05-13 17:48:07,"Gov. Brown: Prepare for severe, long fire season: ""Fire season, first of all, is starting much earlier and will... http://t.co/blTJ5vyqTl",SanDiegoCP,San Diego CP,"San Diego, CA",http://dlvr.it/5fvB1F,,FALSE,,2906,5,103259,Eastern Time (US & Canada),"32.714312,-117.166272",,,dlvr.it,en,32.714312,-117.166272
4.66395E+17,fire,San_Diego_40_mi_real,2014-05-14 01:49:24,2014-05-13 17:49:24,"#BernardoFire - 800 acres burned, 5% controlled. WATCH #NBC7 LIVE:http://t.co/A4WTWb49g0",LibertyNBC7SD,Liberty Zabala,"San Diego, CA",http://on.nbc7.com/M7HAG6A,"BernardoFire, NBC7",FALSE,,2688,2096,8066,Pacific Time (US & Canada),"32.714581,-117.158992",,,Twitter for iPhone,en,32.714581,-117.158992
4.66395E+17,fire,San_Diego_40_mi_real,2014-05-14 01:51:11,2014-05-13 17:51:11,"near Los Barbos, smoke very heavy.  Full fire crew just moved in to protect a home http://t.co/vGrO9BXVqd",sharonchenfox5,Fox 5 Sharon Chen,San Diego,,,FALSE,5,883,331,1160,Pacific Time (US & Canada),"33.014653,-117.188537",,,Twitter for iPhone,en,33.014653,-117.188537
4.66397E+17,fire,San_Diego_40_mi_real,2014-05-14 01:58:37,2014-05-13 17:58:37,Hanging out watching the tv. Getting updates on this San Diego fire. #BernardoFire,nichocampos,Nicho Campos,"iPhone: 35.302115,-120.664204",,BernardoFire,FALSE,1,148,447,1482,Pacific Time (US & Canada),"32.960577,-117.100707",,,Twitter for iPhone,en,32.960577,-117.100707
4.66399E+17,fire,San_Diego_40_mi_real,2014-05-14 02:04:12,2014-05-13 18:04:12,The Best Resources for Tracking the Bernardo Fire: The Best Resources for Tracking the Bernardo FireIt?s never... http://t.co/bG4PNH2dSp,SanDiegoCP,San Diego CP,"San Diego, CA",http://dlvr.it/5fvPDd,,FALSE,,2905,5,103258,Eastern Time (US & Canada),"32.714312,-117.166272",,,dlvr.it,en,32.714312,-117.166272
4.66399E+17,fire,San_Diego_40_mi_real,2014-05-14 02:06:13,2014-05-13 18:06:13,Ok so I don't think we have to evacuate. 10 news says fire is getting contained.,cerelaguiriba,Cerela,San Diego,,,FALSE,,133,181,40077,Alaska,"32.959150,-117.125762",,,Twitter for iPhone,en,32.95915,-117.125762
4.664E+17,fire,San_Diego_40_mi_real,2014-05-14 02:08:24,2014-05-13 18:08:24,@SDFD  thank you for what you all are doing? To tackle the #7000 acre #fire??,ppadres,Peter Risso,San Diego.Ca,,fire,FALSE,,58,463,28,,"32.771368,-117.099763",,,Twitter for iPhone,en,32.771368,-117.099763
4.664E+17,fire,San_Diego_40_mi_real,2014-05-14 02:09:42,2014-05-13 18:09:42,"Big ups to Fire Crews today. Currently fighting a no hitter (no homes lost), no injuries. @CALFIRESANDIEGO #BernardoFire",shshshea,shea small,"San Diego, CA",,BernardoFire,FALSE,,353,375,2379,Pacific Time (US & Canada),"32.948409,-117.123437",,,Twitter for iPhone,en,32.948409,-117.123437
4.664E+17,fire,San_Diego_40_mi_real,2014-05-14 02:10:03,2014-05-13 18:10:03,"1. 2014-666= 1348  
2. 1348= Start of Black Death
3. Death= Hell 
4. Hell= Fire
NWO Conspiracy Confirmed. #illuminati",brad_weeks7,Brad Weeks,Solona Beach,,illuminati,FALSE,1,26,62,17,,"33.001163,-117.250399",,,Twitter for Android,en,33.001163,-117.250399
4.664E+17,fire,San_Diego_40_mi_real,2014-05-14 02:11:17,2014-05-13 18:11:17,Well no really big fire today. I'm pretty sure this late summer early fall maybe really bad. ????,KarchaInSD,Karcha,"Pacific Beach, San Diego, CA",,,FALSE,,274,365,3704,Pacific Time (US & Canada),"32.790057,-117.237636",,,Twitter for iPhone,en,32.790057,-117.237636
4.66401E+17,fire,San_Diego_40_mi_real,2014-05-14 02:12:53,2014-05-13 18:12:53,"@speedypete273 take notes on what the firefighters did today, those boys worked their asses off to beat the fire back today",BustinArown269,Austin Ma¤ana ,San Diego/Flagstaff,,,FALSE,,229,261,6773,Arizona,"32.961643,-117.129941",,,Twitter for iPhone,en,32.961643,-117.129941
4.66403E+17,fire,San_Diego_40_mi_real,2014-05-14 02:23:37,2014-05-13 18:23:37,@alliebug321 we r probably gonna be on alert all night as they fight the fire all night D:,AgniAvis72,Aniruddh Bose-Raut,"San Diego, CA",,,FALSE,,32,75,2930,Pacific Time (US & Canada),"32.804146,-117.170588",,4.66389E+17,Twitter for iPhone,en,32.804146,-117.170588
4.66405E+17,fire,San_Diego_40_mi_real,2014-05-14 02:28:53,2014-05-13 18:28:53,Is it bad to admit that I like the smell of the fire rn ? My house smells like Bon fire ??????#delnorte #BernardoFire,Ashplss,Ashley Huynh,,,"delnorte, BernardoFire",FALSE,,12,37,147,,"33.004920,-117.111927",,,Twitter for iPad,en,33.00492,-117.111927
4.66406E+17,fire,San_Diego_40_mi_real,2014-05-14 02:33:27,2014-05-13 18:33:27,Ahhhh so good to be full and the fire is dying down so it feels good,cerelaguiriba,Cerela,San Diego,,,FALSE,,133,181,40077,Alaska,"32.963580,-117.136250",,,Twitter for iPhone,en,32.96358,-117.13625
4.66406E+17,fire,San_Diego_40_mi_real,2014-05-14 02:35:10,2014-05-13 18:35:10,Bernardo Fire grows to 800 acres; 5 percent contained: Wind-stoked flames tore over open swaths of land in 4S... http://t.co/x3snmIikJ6,SanDiegoCP,San Diego CP,"San Diego, CA",http://dlvr.it/5fvq1h,,FALSE,,2905,5,103258,Eastern Time (US & Canada),"32.714312,-117.166272",,,dlvr.it,en,32.714312,-117.166272
4.66407E+17,fire,San_Diego_40_mi_real,2014-05-14 02:36:04,2014-05-13 18:36:04,Fire season makes me so nervous,S_penzzzz,Savannah Penland,,,,FALSE,,191,178,1297,,"32.862542,-116.981360",,,Twitter for iPhone,en,32.862542,-116.98136
4.66407E+17,fire,San_Diego_40_mi_real,2014-05-14 02:38:30,2014-05-13 18:38:30,Praying for all the firefighters risking their lives right now to contain the fire ??,kayfitz8,Kaylee Fitzgerald,,,,FALSE,2,225,320,1363,Pacific Time (US & Canada),"32.853958,-117.203930",,,Twitter for iPhone,en,32.853958,-117.20393
4.66407E+17,fire,San_Diego_40_mi_real,2014-05-14 02:39:22,2014-05-13 18:39:22,"Hats off to our men and women on the fire lines of #4SFire for their amazing work today; job's not done, nor is our gratitude #thankyou",sdrotary,SD Downtown Rotary,"Downtown San Diego, California",,"4SFire, thankyou",FALSE,2,1251,524,1851,Pacific Time (US & Canada),"32.750502,-117.171516",,,Twitter for iPhone,en,32.750502,-117.171516
4.66409E+17,fire,San_Diego_40_mi_real,2014-05-14 02:45:43,2014-05-13 18:45:43,@AlyssaConcept ???? as long as there's wifi . LOLOLOL JK :( is the fire out yet ?,Ashplss,Ashley Huynh,,,,FALSE,,12,37,147,,"33.004897,-117.111902",,4.66409E+17,Twitter for iPad,en,33.004897,-117.111902
4.66411E+17,fire,San_Diego_40_mi_real,2014-05-14 02:52:42,2014-05-13 18:52:42,Guys we all know what the fire looks like!!! Your pictures are annoying and irrelevant!!!!,fayybaee,Fay,,,,FALSE,,173,152,1787,,"32.906267,-117.172612",,,Twitter for Android,en,32.906267,-117.172612
4.66411E+17,fire,San_Diego_40_mi_real,2014-05-14 02:55:27,2014-05-13 18:55:27,when your neighbor's bbqing and you think it's the smell of the fire,AlexBorowy,Alex Borowy,,,,FALSE,,100,150,787,,"33.011864,-117.111801",,,Twitter for iPhone,en,33.011864,-117.111801
4.66412E+17,fire,San_Diego_40_mi_real,2014-05-14 02:56:01,2014-05-13 18:56:01,The fire here in San Diego is horrible.,XO_edith,..,"San Diego, CA ??",,,FALSE,,905,371,19205,,"32.746478,-117.254416",,,Twitter for iPhone,en,32.746478,-117.254416
4.66412E+17,fire,San_Diego_40_mi_real,2014-05-14 02:57:12,2014-05-13 18:57:12,jk that's the fire,AlexBorowy,Alex Borowy,,,,FALSE,,100,150,787,,"33.014408,-117.111254",,,Twitter for iPhone,en,33.014408,-117.111254
4.66412E+17,fire,San_Diego_40_mi_real,2014-05-14 02:58:22,2014-05-13 18:58:22,?@kozak_judy: We've evacuated due to the Bernardo Fire. View from the front yard. http://t.co/LX6Pra8Nkv? How is everything now?,MargaretE211,Margaret Epperson,,,,FALSE,,87,313,528,,"32.962194,-117.156063",,4.6638E+17,Twitter for iPad,en,32.962194,-117.156063
4.66413E+17,fire,San_Diego_40_mi_real,2014-05-14 03:02:00,2014-05-13 19:02:00,Well it smells like fire in scripps now,NorbergKendall,Ken,San Diego,,,FALSE,1,188,164,3767,Pacific Time (US & Canada),"32.924597,-117.077703",,,Twitter for iPhone,en,32.924597,-117.077703
4.66414E+17,fire,San_Diego_40_mi_real,2014-05-14 03:07:12,2014-05-13 19:07:12,"Bernardo Fire Sparks Selfie Storm: Eight hundred acres burned. More than 5,000 homes evacuated. Let's take a selfie. http://t.co/VLRdYvJBKp",SanDiegoCP,San Diego CP,"San Diego, CA",http://dlvr.it/5fwGyj,,FALSE,,2905,5,103258,Eastern Time (US & Canada),"32.714312,-117.166272",,,dlvr.it,en,32.714312,-117.166272
4.66414E+17,fire,San_Diego_40_mi_real,2014-05-14 03:07:23,2014-05-13 19:07:23,Some evacuations lifted in Bernardo Fire; 800 acres burned: Wind-stoked flames tore over open swaths of land in... http://t.co/B1VuLXwsls,SanDiegoCP,San Diego CP,"San Diego, CA",http://dlvr.it/5fwGzX,,FALSE,1,2905,5,103258,Eastern Time (US & Canada),"32.714312,-117.166272",,,dlvr.it,en,32.714312,-117.166272
4.66415E+17,fire,San_Diego_40_mi_real,2014-05-14 03:10:13,2014-05-13 19:10:13,About to teach my son some respect. Picking up some Chipotle and taking it to the fire station. Respect to all the first responders.,U_Mad_Bro42,U Mad Bro,"San Diego, CA ",,,FALSE,1,728,328,18963,Pacific Time (US & Canada),"33.020087,-117.110926",,,Twitter for iPhone,en,33.020087,-117.110926
4.66415E+17,fire,San_Diego_40_mi_real,2014-05-14 03:10:15,2014-05-13 19:10:15,"Y'all saying because of the fire, school isn't safe. But I bet half of you would be safe enough for the beach right? #PQLogic",Emmuel_Reyes,meme,,,PQLogic,FALSE,2,419,301,5188,,"32.940331,-117.155777",,,Twitter for iPhone,en,32.940331,-117.155777
4.66415E+17,fire,San_Diego_40_mi_real,2014-05-14 03:11:28,2014-05-13 19:11:28,@DoshJowney that's not the point everyone's trippin over the fire and safety when really they just wanna go out haha,Emmuel_Reyes,meme,,,,FALSE,,419,301,5188,,"32.940551,-117.155742",,4.66415E+17,Twitter for iPhone,en,32.940551,-117.155742
4.66416E+17,fire,San_Diego_40_mi_real,2014-05-14 03:13:59,2014-05-13 19:13:59,"""We're like fire and gasoline, I'm no good for you, you're no good for me"" ????",AlyHance,Aly Hance,,,,FALSE,,226,157,14689,Arizona,"32.731583,-117.123201",,,Twitter for iPhone,en,32.731583,-117.123201
4.66421E+17,fire,San_Diego_40_mi_real,2014-05-14 03:34:23,2014-05-13 19:34:23,"Since there's a fire in rancho Bernardo, can we get out of school",ihatecalob,KeB,somewhere writing lyrics,,,FALSE,,2383,2034,57266,Pacific Time (US & Canada),"32.756956,-117.140526",,,Twitter for iPhone,en,32.756956,-117.140526
4.66422E+17,fire,San_Diego_40_mi_real,2014-05-14 03:39:19,2014-05-13 19:39:19,17 hr day done back at the station at 1 am to cover this fire ??. The grind don't stop but it's getting old #whenwilligetmyshine,Mad__Livin,Madison,San Diego/Los Angeles,,whenwilligetmyshine,FALSE,,230,501,3438,Pacific Time (US & Canada),"32.847472,-117.267817",,,Twitter for iPhone,en,32.847472,-117.267817
4.66423E+17,fire,San_Diego_40_mi_real,2014-05-14 03:39:40,2014-05-13 19:39:40,I was able to get back onto my street and I found out that the fire near my house is now out. Got super close! So thankful right now,devin_moran1,Fire Fighter Dman,,,,FALSE,,126,110,1472,,"33.016514,-117.185271",,,Twitter for iPhone,en,33.016514,-117.185271
4.66423E+17,fire,San_Diego_40_mi_real,2014-05-14 03:42:44,2014-05-13 19:42:44,RT @nbcsandiego: All evacuations lifted in #BernardoFire. http://t.co/LRBEqdMnBn,krisroxxfoxx,Kristin  M. Johnson,"San Diego, CA since 1974",http://on.nbc7.com/7nMQvsa,BernardoFire,FALSE,,47,535,10196,Pacific Time (US & Canada),"32.815089,-117.178779",,,TweetCaster for iOS,en,32.815089,-117.178779
4.66425E+17,fire,San_Diego_40_mi_real,2014-05-14 03:51:13,2014-05-13 19:51:13,?@nbcsandiego: All evacuations lifted in #BernardoFire. http://t.co/kDxIZKwhT3?,alexmunrankin,Alex Munro Rankin,"San Diego, CA",http://on.nbc7.com/7nMQvsa,BernardoFire,FALSE,,624,576,8248,Pacific Time (US & Canada),"32.666212,-117.000178",,4.66423E+17,Twitter for iPhone,en,32.666212,-117.000178
4.66427E+17,fire,San_Diego_40_mi_real,2014-05-14 03:56:12,2014-05-13 19:56:12,"Fire
Fir
Fi
F
S
Sw
Swa
Swag",ShaneModlin10,$HAN?,,,,FALSE,1,424,331,2622,,"32.994848,-117.075287",,,Twitter for iPhone,en,32.994848,-117.075287
4.66428E+17,fire,San_Diego_40_mi_real,2014-05-14 04:01:28,2014-05-13 20:01:28,It's amazing the choices you make when faced with the reality a fire is drawing near to your home and? http://t.co/hihjCT98Z9,FYPE12,ForeverYoungParties ,,http://instagram.com/p/n9oyRZsrV0/,,FALSE,,17,17,121,Pacific Time (US & Canada),"32.976667,-117.162535",,,Instagram,en,32.976667,-117.162535
4.6643E+17,fire,San_Diego_40_mi_real,2014-05-14 04:10:38,2014-05-13 20:10:38,All evacuations lifted in Bernardo Fire; 800 acres burned: Wind-stoked flames tore over open swaths of land in 4S... http://t.co/TNvbnjzVSF,SanDiegoCP,San Diego CP,"San Diego, CA",http://dlvr.it/5fxChT,,FALSE,,2905,5,103258,Eastern Time (US & Canada),"32.714312,-117.166272",,,dlvr.it,en,32.714312,-117.166272
4.66432E+17,fire,San_Diego_40_mi_real,2014-05-14 04:16:17,2014-05-13 20:16:17,Our APEC burning ceremony still has yet to happen @simdele @DonutDiana @joyparkk wee need a blow up of TJs face and a fire pit,pafflle,sushirollpaffle,,,,FALSE,,188,157,1859,,"32.946665,-117.134202",,,Twitter for iPhone,en,32.946665,-117.134202
4.66435E+17,fire,San_Diego_40_mi_real,2014-05-14 04:27:32,2014-05-13 20:27:32,Fire the refs #allinfavorsayi ??,EmilyKearney2,Emily Kearney,"San Diego, California",,allinfavorsayi,FALSE,,190,139,4871,,"32.962856,-117.210235",,,Twitter for iPhone,en,32.962856,-117.210235
4.66435E+17,fire,San_Diego_40_mi_real,2014-05-14 04:27:37,2014-05-13 20:27:37,?@nbcsandiego: Poway Unified says all schools will be in session tomorrow. http://t.co/QWEQCzV5vE? screw you PUSD??,cayleeevickkk,Caylee,,http://on.nbc7.com/y2EOccX,,FALSE,,289,568,3480,,"32.953011,-117.019893",,4.66427E+17,Twitter for iPhone,en,32.953011,-117.019893
4.66435E+17,fire,San_Diego_40_mi_real,2014-05-14 04:29:43,2014-05-13 20:29:43,experienced my first Cali fire today?? so blessed it didn't come 3 more miles into Rancho,DuffyMoyer,Duffy Moyer,,,,FALSE,,424,411,2142,,"33.028304,-117.207535",,,Twitter for iPhone,en,33.028304,-117.207535
4.66438E+17,fire,San_Diego_40_mi_real,2014-05-14 04:42:10,2014-05-13 20:42:10,@RSF_Fire whats the story with small fire off of camino del sur?,johngfriedrich,John Friedrich,"Los Angeles, CA",,,FALSE,,4081,319,1467,Alaska,"33.003969,-117.170623",,4.66399E+17,Twitter for iPhone,en,33.003969,-117.170623
4.66439E+17,fire,San_Diego_40_mi_real,2014-05-14 04:44:29,2014-05-13 20:44:29,"I love seeing all the post about the fire then there's that one person that's like ""i love food #fat """,ChansiMango,Charlie,San Diego,,fat,FALSE,,145,157,2162,,"33.026306,-117.104380",,,Twitter for iPhone,en,33.026306,-117.10438
4.66439E+17,fire,San_Diego_40_mi_real,2014-05-14 04:46:53,2014-05-13 20:46:53,After the test tomorrow ima burn all my history work and make s'mores with the fire cuz fuck APUSH,ThisIsNotTarra,tarra,"Rio de Janeiro, Brazil ",,,FALSE,,237,311,8857,Arizona,"32.581271,-117.099886",,,Twitter for Android,en,32.581271,-117.099886
4.66441E+17,fire,San_Diego_40_mi_real,2014-05-14 04:52:39,2014-05-13 20:52:39,@Ana_heart00 and by summer do you mean fire? In San Diego I'm pretty sure they're one in the same,xxfaunne,G.I. Jen ?,"San Diego, CA",,,FALSE,,716,641,7324,Pacific Time (US & Canada),"32.788068,-117.010762",,4.66436E+17,Twitter for iPhone,en,32.788068,-117.010762
4.66446E+17,fire,San_Diego_40_mi_real,2014-05-14 05:10:50,2014-05-13 21:10:50,Welp hearing fire trucks isn't a good sign??,aross_da_boss,Allison Ross,,,,FALSE,,251,226,6766,,"32.904460,-117.080503",,,Twitter for iPhone,en,32.90446,-117.080503
4.66446E+17,fire,San_Diego_40_mi_real,2014-05-14 05:14:04,2014-05-13 21:14:04,RT @fox5sandiego: Gov. Brown warns of long and severe fire season http://t.co/JnYGlHqxJD,krisroxxfoxx,Kristin  M. Johnson,"San Diego, CA since 1974",http://go.kswbtv.com/1oNbEJR,,FALSE,,47,535,10196,Pacific Time (US & Canada),"32.815125,-117.178851",,,TweetCaster for iOS,en,32.815125,-117.178851
4.66446E+17,fire,San_Diego_40_mi_real,2014-05-14 05:14:06,2014-05-13 21:14:06,I can smell the fire. #BernardoFire,MageoPere,Pere Mageo,San Diego,,BernardoFire,FALSE,,117,270,1801,,"32.898380,-117.106309",,,Twitter for iPhone,en,32.89838,-117.106309
4.66447E+17,fire,San_Diego_40_mi_real,2014-05-14 05:16:06,2014-05-13 21:16:06,A little wine and fire with da b‘-do @shutupATL who knows what's next ;) #lashadas,8rendanCF,Brendan Mathews,"San Diego, CA",,lashadas,FALSE,,791,156,8419,,"32.711932,-117.158015",,,Twitter for iPhone,en,32.711932,-117.158015
4.66453E+17,fire,San_Diego_40_mi_real,2014-05-14 05:38:37,2014-05-13 21:38:37,"I wish Chicago fire was on all day, everyday. #goingtohavewithdrawals #ChicagoFireFinale",xoxobabykaee,Kaelee Garibaldi,,,"goingtohavewithdrawals, ChicagoFireFinale",FALSE,,291,285,4042,Pacific Time (US & Canada),"32.746473,-117.164863",,,Twitter for iPhone,en,32.746473,-117.164863
4.66455E+17,fire,San_Diego_40_mi_real,2014-05-14 05:48:43,2014-05-13 21:48:43,@sp0ol yeah we got like 4 calls to evacuate and the fire wasn't THAT near. Anyway being the nervous wreck that i am i freaked out a little,vsndr,Andr‚a,,,,FALSE,,40,69,2266,Eastern Time (US & Canada),"32.984545,-117.087773",,4.66455E+17,Twitter for iPhone,en,32.984545,-117.087773
4.66458E+17,fire,San_Diego_40_mi_real,2014-05-14 05:59:06,2014-05-13 21:59:06,Gov. Brown Urges Vigilance During California's Extended Fire Season: Fire season is lasting much longer than it... http://t.co/kS76pkRIQW,SanDiegoCP,San Diego CP,"San Diego, CA",http://dlvr.it/5fyfZT,,FALSE,,2906,5,103259,Eastern Time (US & Canada),"32.714312,-117.166272",,,dlvr.it,en,32.714312,-117.166272
4.66458E+17,fire,San_Diego_40_mi_real,2014-05-14 05:59:07,2014-05-13 21:59:07,"""you're just smelling for smoke so you can find the boy who lost everything in the fire to see if you can save him"" - SK",savannahdurso,Savvy,,,,FALSE,,210,266,4219,Pacific Time (US & Canada),"32.771369,-117.074029",,,Twitter for iPhone,en,32.771369,-117.074029
4.66459E+17,fire,San_Diego_40_mi_real,2014-05-14 06:04:22,2014-05-13 22:04:22,lost heart but im maintainin. ive been told that im amazing. make sure i keep that fire blazin. we livin.,k_roe_,k roe fo sho,419 & 619,,,FALSE,,346,181,18795,Atlantic Time (Canada),"32.776778,-117.130980",,,Twitter for iPhone,en,32.776778,-117.13098
4.66464E+17,fire,San_Diego_40_mi_real,2014-05-14 06:24:25,2014-05-13 22:24:25,"Video of the beach, fire and our campsite in #baja from our lay couple days #offroading here in? http://t.co/l35lIcKOrL",talonreid,Talon Reid,Hollywood CA,http://instagram.com/p/n95JR3hOiC/,"baja, offroading",FALSE,,2254,278,3652,Quito,"32.555818,-116.936864",,,Instagram,en,32.555818,-116.936864
4.66464E+17,fire,San_Diego_40_mi_real,2014-05-14 06:25:01,2014-05-13 22:25:01,"?@Julia_Deng: San Diego lists status of #BernardoFire as ""in your pants."" @NBCSanDiego's story: http://t.co/vCq55nUbBK #youstayclassy?",realestatemamma,Melinda DiPerna,"Encinitas, CA",http://on.nbc7.com/pEwXUdt,"BernardoFire, youstayclassy",FALSE,,721,1869,862,Arizona,"33.028046,-117.286038",,4.66458E+17,Twitter for iPhone,en,33.028046,-117.286038
4.66467E+17,fire,San_Diego_40_mi_real,2014-05-14 06:37:43,2014-05-13 22:37:43,If the fire is contained why does it smell like an ashtray now? ??,sofiaschugar,Sofia Schugar,,,,FALSE,,69,174,331,Pacific Time (US & Canada),"32.934024,-117.203246",,,Twitter for iPhone,en,32.934024,-117.203246
4.66468E+17,fire,San_Diego_40_mi_real,2014-05-14 06:39:24,2014-05-13 22:39:24,@maddiek_taylor yeah we're fine! Luckily the fire stopped a few blocks from our house. We left just cause the smoke was getting really heavy,velavee, V ,San Diego,,,FALSE,,165,176,6748,Pacific Time (US & Canada),"32.942705,-117.227684",,4.66467E+17,Twitter for iPhone,en,32.942705,-117.227684
4.6647E+17,fire,San_Diego_40_mi_real,2014-05-14 06:46:15,2014-05-13 22:46:15,Bernardo Fire scorches hundreds of acres: The 10News Breaking News Tracker was on the front lines all day --... http://t.co/6kIUdSADao,SanDiegoCP,San Diego CP,"San Diego, CA",http://dlvr.it/5fzGzt,,FALSE,,2905,5,103258,Eastern Time (US & Canada),"32.714312,-117.166272",,,dlvr.it,en,32.714312,-117.166272
4.66473E+17,fire,San_Diego_40_mi_real,2014-05-14 06:59:29,2014-05-13 22:59:29,"Hahah damn wind was tryin to hold back my fire, not today bruh!! #wataboutit #camp #summer? http://t.co/Coxh2U3xBQ",talonreid,Talon Reid,Hollywood CA,http://instagram.com/p/n99KKvhOk3/,"wataboutit, camp, summer",FALSE,,2254,278,3652,Quito,"32.951986,-117.061755",,,Instagram,en,32.951986,-117.061755
4.66473E+17,fire,San_Diego_40_mi_real,2014-05-14 07:00:26,2014-05-13 23:00:26,?@BuzzFeed: San Diego County Warns Of ?Fire In Your Pants? As Wildfire Rages http://t.co/9KJ3yqHQOf http://t.co/RchWKx5QUm? LOL/Wtf,govtcitag,Camille Marie,"San Diego, CA",http://www.buzzfeed.com/jimdalrympleii/san-diego-county-warns-of-fire-in-your-pants-as-wildfire-rag,,FALSE,,25,95,345,,"32.725878,-117.164182",,4.66413E+17,Twitter for iPhone,en,32.725878,-117.164182
4.6648E+17,fire,San_Diego_40_mi_real,2014-05-14 07:25:54,2014-05-13 23:25:54,So is the fire burned out or???? Why do we have school tomorrow ??,reinaatharanii,Reina Tharani,,,,FALSE,,119,196,5222,Hawaii,"32.987673,-117.056947",,,Twitter for iPhone,en,32.987673,-117.056947
4.66485E+17,fire,San_Diego_40_mi_real,2014-05-14 07:47:44,2014-05-13 23:47:44,Bernardo Fire: Animal information: The Helen Woodward Animal Center is preparing for a possible evacuation due to... http://t.co/mgg9OkHoce,SanDiegoCP,San Diego CP,"San Diego, CA",http://dlvr.it/5g0rYJ,,FALSE,,2905,5,103258,Eastern Time (US & Canada),"32.714312,-117.166272",,,dlvr.it,en,32.714312,-117.166272
4.66485E+17,fire,San_Diego_40_mi_real,2014-05-14 07:47:45,2014-05-13 23:47:45,All evacuations lifted in Bernardo Fire; 850 acres burned: Wind-stoked flames tore over open swaths of land in 4S... http://t.co/jLYrbdK38E,SanDiegoCP,San Diego CP,"San Diego, CA",http://dlvr.it/5g0rc4,,FALSE,,2905,5,103258,Eastern Time (US & Canada),"32.714312,-117.166272",,,dlvr.it,en,32.714312,-117.166272
4.6649E+17,fire,San_Diego_40_mi_real,2014-05-14 08:06:58,2014-05-14 00:06:58,@KristiMankheyy @ashlipardi @colleen_jonesyy well we are all over here sitting by the fire drinking beer listening to music.. Shoulda came,BrianGuendling,Brian Guendling,,,,FALSE,,416,102,12459,Pacific Time (US & Canada),"33.013907,-117.031601",,4.66489E+17,Twitter for iPhone,en,33.013907,-117.031601
4.66533E+17,fire,San_Diego_40_mi_real,2014-05-14 11:00:22,2014-05-14 03:00:22,ILL FIRE THAT NINA LIKE ITS THE FIRST DAY ON THE JOB AND THE BITCH OVERSLEPT ?????? #streets http://t.co/CcSECdXFew,k_roe_,k roe fo sho,419 & 619,,streets,FALSE,,346,181,18795,Atlantic Time (Canada),"32.776726,-117.130967",,,Twitter for iPhone,en,32.776726,-117.130967
4.66537E+17,fire,San_Diego_40_mi_real,2014-05-14 11:13:27,2014-05-14 03:13:27,"Strong winds could flare Bernardo Fire Wednesday: Although winds died down overnight, powerful Santa Ana winds... http://t.co/nU7bVc4Xaa",SanDiegoCP,San Diego CP,"San Diego, CA",http://dlvr.it/5g6w8C,,FALSE,,2905,5,103258,Eastern Time (US & Canada),"32.714312,-117.166272",,,dlvr.it,en,32.714312,-117.166272
4.66564E+17,fire,San_Diego_40_mi_real,2014-05-14 13:02:13,2014-05-14 05:02:13,Local agencies made some missteps during fire: An emergency notice from the County of San Diego emergency app was... http://t.co/uYFxGoAG22,SanDiegoCP,San Diego CP,"San Diego, CA",http://dlvr.it/5gB1jc,,FALSE,,2906,5,103259,Eastern Time (US & Canada),"32.714312,-117.166272",,,dlvr.it,en,32.714312,-117.166272
4.66568E+17,fire,San_Diego_40_mi_real,2014-05-14 13:16:09,2014-05-14 05:16:09,Our fire fighters kicked some ash!!# Got to give them some atta men and atta women!!#,newell336,Denise Newell,San Diego ,,,FALSE,,913,1428,295,,"32.744101,-117.068221",,,Twitter for Android,en,32.744101,-117.068221
4.66568E+17,fire,San_Diego_40_mi_real,2014-05-14 13:17:15,2014-05-14 05:17:15,Hope they snuff this fire completely out soon!!,newell336,Denise Newell,San Diego ,,,FALSE,,913,1428,295,,"32.744259,-117.068138",,,Twitter for Android,en,32.744259,-117.068138
4.66569E+17,fire,San_Diego_40_mi_real,2014-05-14 13:22:11,2014-05-14 05:22:11,Something about the hours before 7 am that fire up! #teamnosleep #GetUpToGetIt,Steven_Borrelli,Steven Borrelli,"San Diego, CA",,"teamnosleep, GetUpToGetIt",FALSE,,341,341,1286,Alaska,"32.788467,-117.240078",,,Twitter for iPhone,en,32.788467,-117.240078
4.66573E+17,fire,San_Diego_40_mi_real,2014-05-14 13:35:50,2014-05-14 05:35:50,"Update: fire has burned up to 1600 acres, and only 25% contained, how comforting??",ccgallaher,Cameron Gallaher,RB High,,,FALSE,5,448,297,6288,,"32.991840,-117.055719",,,Twitter for iPhone,en,32.99184,-117.055719
4.66573E+17,fire,San_Diego_40_mi_real,2014-05-14 13:39:05,2014-05-14 05:39:05,@10News @Info_CIIMT1 the fire is cold now.  Winds are coming though. Mid morning,TBowen5150,Terry Bowen ,So Cal  / Statewide,,,FALSE,,818,2002,8073,,"33.015667,-116.870610",,4.66572E+17,Twitter for Android,en,33.015667,-116.87061
4.66577E+17,fire,San_Diego_40_mi_real,2014-05-14 13:54:57,2014-05-14 05:54:57,#bernardofire Still Poses Threat http://t.co/3oiiHEr5Kf,BobbiSchutz,Bobbi Schutz,San Diego County,http://www.nbcsandiego.com/news/local/Bernardo-Fire-San-Diego-Wednesday-Santaluz-Fairbanks-Ranch-Del-Mar-259215591.html,bernardofire,FALSE,,31,160,321,,"32.959512,-116.968222",,,iOS,en,32.959512,-116.968222
4.6658E+17,fire,San_Diego_40_mi_real,2014-05-14 14:05:07,2014-05-14 06:05:07,"Bernardo Fire: 1,450 acres burned with 25 percent containment: Fire crews are working Wednesday morning to... http://t.co/alWAUTKApN",SanDiegoCP,San Diego CP,"San Diego, CA",http://dlvr.it/5gCX3h,,FALSE,2,2905,5,103258,Eastern Time (US & Canada),"32.714312,-117.166272",,,dlvr.it,en,32.714312,-117.166272
4.66585E+17,fire,San_Diego_40_mi_real,2014-05-14 14:25:40,2014-05-14 06:25:40,@MrNooz hey Mr nooz. The Bernardo fire was named(like all other fires)for a geographic location Camino San Bernardino. Shortened when needed,TBowen5150,Terry Bowen ,So Cal  / Statewide,,,FALSE,,818,2002,8073,,"33.020804,-116.857767",,,Twitter for Android,en,33.020804,-116.857767
4.66587E+17,fire,San_Diego_40_mi_real,2014-05-14 14:33:04,2014-05-14 06:33:04,Building codes reduced damage in fire. Historic fires saw greater damage when flames and embers were at the verge of structure #BernardoFire,R9Higgins,Randall Higgins,San Diego,,BernardoFire,FALSE,,18,140,110,,"32.723934,-117.129501",,,Twitter for iPhone,en,32.723934,-117.129501
4.66589E+17,fire,San_Diego_40_mi_real,2014-05-14 14:40:45,2014-05-14 06:40:45,Dang #fire. Hopefully it stays at a good distance. Thank you to all the #firefighters keeping #  #bernardofire under control,BriannaColleen,Brianna Colleen,San Diego CA,,"fire, firefighters, bernardofire",FALSE,,112,131,3303,Pacific Time (US & Canada),"32.941328,-117.113552",,,Twitter for iPhone,en,32.941328,-117.113552
4.6659E+17,fire,San_Diego_40_mi_real,2014-05-14 14:43:53,2014-05-14 06:43:53,I really like SD tonight just don't know if I can fire or not,U_Mad_Bro42,U Mad Bro,"San Diego, CA ",,,FALSE,,728,328,18963,Pacific Time (US & Canada),"33.020309,-117.117785",,,Twitter for iPhone,en,33.020309,-117.117785
4.66592E+17,fire,San_Diego_40_mi_real,2014-05-14 14:52:08,2014-05-14 06:52:08,Fire watch. It is winnnnndddy! @ 4S Ranch http://t.co/jJNzdGJrod,jacobcervantesn,Jacob Cervantes,"San Diego, California",http://instagram.com/p/n-zP7Jwc2O/,,FALSE,,250,441,6897,Arizona,"33.028002,-117.113995",,,Instagram,en,33.028002,-117.113995
4.66592E+17,fire,San_Diego_40_mi_real,2014-05-14 14:52:24,2014-05-14 06:52:24,"Crews Fighting Nearly 1,600-Acre Bernardo Fire Brace For Strong Winds: A nearly 1,600-acre wildfire was... http://t.co/iaTb4rCmHt",SanDiegoCP,San Diego CP,"San Diego, CA",http://dlvr.it/5gDZxH,,FALSE,,2905,5,103258,Eastern Time (US & Canada),"32.714312,-117.166272",,,dlvr.it,en,32.714312,-117.166272
4.66592E+17,fire,San_Diego_40_mi_real,2014-05-14 14:53:56,2014-05-14 06:53:56,My car smells like smoke from the fire ??,sophieajang,Sophie Ajang,,,,FALSE,,173,316,2922,,"33.010841,-117.109149",,,Twitter for iPhone,en,33.010841,-117.109149
4.66593E+17,fire,San_Diego_40_mi_real,2014-05-14 14:56:37,2014-05-14 06:56:37,Just saw how close the fire really was to our school and they didn't at least have a fire drill yesterday...,sophieajang,Sophie Ajang,,,,FALSE,,173,316,2922,,"33.011002,-117.122278",,,Twitter for iPhone,en,33.011002,-117.122278
4.66594E+17,fire,San_Diego_40_mi_real,2014-05-14 15:01:08,2014-05-14 07:01:08,@10News Car fire SB 15 South of Miramar Road @10NewsHunt @10NewsHerrera http://t.co/euB8oRwaia,devinmartinez,Devin M. Martinez,Los Angeles,,,FALSE,5,335,458,558,Pacific Time (US & Canada),"32.874203,-117.107049",,,Twitter for iPhone,en,32.874203,-117.107049
4.66594E+17,fire,San_Diego_40_mi_real,2014-05-14 15:01:08,2014-05-14 07:01:08,Stuck in traffic on the 15 due to another fire. #SanDiegoProbs,ericharmatz,Eric Harmatz,"San Diego, CA",,SanDiegoProbs,FALSE,1,515,272,38141,Eastern Time (US & Canada),"32.884139,-117.110609",,,Twitter for iPhone,en,32.884139,-117.110609
4.66596E+17,fire,San_Diego_40_mi_real,2014-05-14 15:08:10,2014-05-14 07:08:10,"Bernardo Fire: 1,550 acres burned with 25 percent containment: Fire crews and personnel from San Diego and... http://t.co/KUda2nwWm6",SanDiegoCP,San Diego CP,"San Diego, CA",http://dlvr.it/5gDx5s,,FALSE,,2905,5,103258,Eastern Time (US & Canada),"32.714312,-117.166272",,,dlvr.it,en,32.714312,-117.166272
4.66596E+17,fire,San_Diego_40_mi_real,2014-05-14 15:08:46,2014-05-14 07:08:46,"Wind, Heat, and Fire couldn't stop #MontanaStateFootball from recruiting! #Compete",coachgonzopoway,Damian Gonzalez,Poway ,,"MontanaStateFootball, Compete",FALSE,,733,239,3480,Pacific Time (US & Canada),"32.998943,-117.024398",,,Twitter for iPhone,en,32.998943,-117.024398
4.66611E+17,fire,San_Diego_40_mi_real,2014-05-14 16:08:23,2014-05-14 08:08:23,"I've learned a couple of things yesterday about the Santa Ana's, good and bad with the fire and all.? http://t.co/aiZVSib8LY",Kookingitup,Kookingitup,"San Diego, CA",http://instagram.com/p/n-7-XaKMaQ/,,FALSE,,231,130,2197,Arizona,"32.813362,-117.271452",,,Instagram,en,32.813362,-117.271452
4.66611E+17,fire,San_Diego_40_mi_real,2014-05-14 16:08:40,2014-05-14 08:08:40,"""I hope it's gets SO HOT THAT THE WORLD CATCHES ON FIRE"" wtf ?????? 
-Mrs.M",LiL_Stromannn,Olaf?,,,,FALSE,,342,318,2863,,"32.730547,-116.924391",,,Twitter for iPhone,en,32.730547,-116.924391
4.66616E+17,fire,San_Diego_40_mi_real,2014-05-14 16:26:22,2014-05-14 08:26:22,"Fire weather. #sandiego

Bernardo Fire burns 1,584 acres in North San Diego County | San Diego 6 | Local News http://t.co/MlD24HGU9x",jassycaww,Jolie Folle ??,San Diego | Koalafornia,http://www.sandiego6.com/news/local/Fire-crews-air-tanker-helicopter-fighting-fire-in-4S-Ranch-259102701.html?m=y&smobile=y,sandiego,FALSE,,563,1080,4881,Pacific Time (US & Canada),"32.717349,-117.142836",,,Twitter for Android,en,32.717349,-117.142836
4.66617E+17,fire,San_Diego_40_mi_real,2014-05-14 16:34:06,2014-05-14 08:34:06,#SanDiego parents - Was your child evacuated during the fire? How do you think school evacuations were handled? #NBC7 #BernardoFire,LibertyNBC7SD,Liberty Zabala,"San Diego, CA",,"SanDiego, NBC7, BernardoFire",FALSE,3,2688,2096,8066,Pacific Time (US & Canada),"32.717871,-117.159248",,,Twitter for iPhone,en,32.717871,-117.159248
4.66621E+17,fire,San_Diego_40_mi_real,2014-05-14 16:48:20,2014-05-14 08:48:20,"@NeshtyB wind, fire, heatwave",HollywoodBond,Justin Bond,,,,FALSE,,11,20,255,,"32.961552,-117.227692",,4.66464E+17,Twitter for iPhone,en,32.961552,-117.227692
4.66624E+17,fire,San_Diego_40_mi_real,2014-05-14 17:00:53,2014-05-14 09:00:53,There's another fire hahah,kayla_anderson,Kayla Anderson,,,,FALSE,1,324,296,920,,"33.013744,-117.121153",,,Twitter for iPhone,en,33.013744,-117.121153
4.6663E+17,fire,San_Diego_40_mi_real,2014-05-14 17:22:22,2014-05-14 09:22:22,"Hot spot started a brush fire a little east of Oak Valley. If it gets to black mountain, uh. #BernardoFire",ClantonMatt,Matt Clanton,San Diego CA,,BernardoFire,FALSE,,1,7,92,,"33.000374,-117.108703",,,Twitter for iPhone,en,33.000374,-117.108703
4.66631E+17,fire,San_Diego_40_mi_real,2014-05-14 17:26:37,2014-05-14 09:26:37,Chopper 8 approaching Pendleton fire. #breaking http://t.co/hsMIhBwg8E,NewsManLou,Louis Weiner,"San Diego, CA, USA",,breaking,FALSE,1,778,949,8788,Pacific Time (US & Canada),"32.826425,-117.156406",,,iOS,en,32.826425,-117.156406
4.66631E+17,fire,San_Diego_40_mi_real,2014-05-14 17:29:40,2014-05-14 09:29:40,Brush fire burning on Camp Pendleton: It broke at the Naval Weapons Station. It is not threatening Fallbrook. http://t.co/JpIqp8851m,SanDiegoCP,San Diego CP,"San Diego, CA",http://dlvr.it/5gHnBd,,FALSE,,2906,5,103259,Eastern Time (US & Canada),"32.714312,-117.166272",,,dlvr.it,en,32.714312,-117.166272
4.66632E+17,fire,San_Diego_40_mi_real,2014-05-14 17:32:36,2014-05-14 09:32:36,Another fire in N San Diego??. I'm definitely worried about the rest of the year and whether the whole county will go up in flames??????,AllThingsCastle,Alison Hunter,Sunny San Diego,,,FALSE,,63,127,7290,Pacific Time (US & Canada),"32.606251,-117.051278",,,Twitter for iPhone,en,32.606251,-117.051278
4.66632E+17,fire,San_Diego_40_mi_real,2014-05-14 17:32:45,2014-05-14 09:32:45,This fire really needs to GTFO right now,Ross_zeh_Boss,Melanie Ross,,,,FALSE,,238,322,780,,"33.019912,-117.137967",,,Twitter for iPhone,en,33.019912,-117.137967
4.66633E+17,fire,San_Diego_40_mi_real,2014-05-14 17:34:34,2014-05-14 09:34:34,Can this fire helicopter stop flying over my house. I feel like I'm in a war zone,austinhurder,Austin Hur?,Tempe AZ,,,FALSE,,347,321,3087,Pacific Time (US & Canada),"33.008831,-117.120301",,,Twitter for iPhone,en,33.008831,-117.120301
4.66635E+17,fire,San_Diego_40_mi_real,2014-05-14 17:45:06,2014-05-14 09:45:06,Fire At Camp Pendleton Prompts Evacuations: Naval Weapons Station Fallbrook personnel and Camp Pendleton?s DeLuz... http://t.co/cTJbvgtrh6,SanDiegoCP,San Diego CP,"San Diego, CA",http://dlvr.it/5gJ3Yc,,FALSE,,2906,5,103259,Eastern Time (US & Canada),"32.714312,-117.166272",,,dlvr.it,en,32.714312,-117.166272
4.66637E+17,fire,San_Diego_40_mi_real,2014-05-14 17:50:56,2014-05-14 09:50:56,Alright fire,DonovanKiara,KIKI,San Diego,,,FALSE,5,319,253,2604,,"33.014705,-117.120458",,,Twitter for iPhone,en,33.014705,-117.120458
4.66637E+17,fire,San_Diego_40_mi_real,2014-05-14 17:51:51,2014-05-14 09:51:51,Alright fire,bayleemumma,Baylee Mumma,,,,FALSE,6,311,195,1181,,"33.014736,-117.120429",,,Twitter for iPhone,en,33.014736,-117.120429
4.66639E+17,fire,San_Diego_40_mi_real,2014-05-14 18:01:16,2014-05-14 10:01:16,LIVE STREAM: Fire reported at Camp Pendleton: A fire has been reported at Camp Pendleton and it is sending large... http://t.co/yPnyHFow3Y,SanDiegoCP,San Diego CP,"San Diego, CA",http://dlvr.it/5gJJ3p,,FALSE,1,2906,5,103259,Eastern Time (US & Canada),"32.714312,-117.166272",,,dlvr.it,en,32.714312,-117.166272
4.66641E+17,fire,San_Diego_40_mi_real,2014-05-14 18:07:05,2014-05-14 10:07:05,Does anyone have any information on the fire in #Encinitas?,RachelLaMar_JD,Rachel LaMar,"Carlsbad, CA",,Encinitas,FALSE,,3521,3528,13179,Pacific Time (US & Canada),"33.044583,-117.292479",,,Twitter for iPhone,en,33.044583,-117.292479
4.66641E+17,fire,San_Diego_40_mi_real,2014-05-14 18:08:17,2014-05-14 10:08:17,If black mountain catches on fire.. Bye PQ,jordynmarieee94,Halle Perry ?,?? Diego ,,,FALSE,2,360,290,5845,Pacific Time (US & Canada),"32.999012,-117.117188",,,Twitter for Android,en,32.999012,-117.117188
4.66642E+17,fire,San_Diego_40_mi_real,2014-05-14 18:10:19,2014-05-14 10:10:19,There's another fire ??,anigeragosian,Ani Geragosian,germag aghchik ,,,FALSE,,190,126,3393,Central Time (US & Canada),"32.911081,-117.119797",,,Twitter for iPhone,en,32.911081,-117.119797
4.66642E+17,fire,San_Diego_40_mi_real,2014-05-14 18:12:27,2014-05-14 10:12:27,"Between the Bernardo fire,the camp Pendleton fire and the Carlsbad fire... My brothers totally gonna get called in..",jordynmarieee94,Halle Perry ?,?? Diego ,,,FALSE,,360,290,5845,Pacific Time (US & Canada),"33.012475,-117.079257",,,Twitter for Android,en,33.012475,-117.079257
4.66643E+17,fire,San_Diego_40_mi_real,2014-05-14 18:16:31,2014-05-14 10:16:31,Semi-truck fire shuts down I-5 at Camp Pendleton: Both sides of the freeway were shut down. http://t.co/TXDHAQvvey,SanDiegoCP,San Diego CP,"San Diego, CA",http://dlvr.it/5gJZCT,,FALSE,,2906,5,103259,Eastern Time (US & Canada),"32.714312,-117.166272",,,dlvr.it,en,32.714312,-117.166272
4.66644E+17,fire,San_Diego_40_mi_real,2014-05-14 18:18:03,2014-05-14 10:18:03,Fire now in N.E. Encinitas or South Carlsbad . Grey and black smoke,JeromeStocks,Jerome Stocks,Encinitas,,,FALSE,,272,513,943,,"33.046862,-117.258884",,,Twitter for iPhone,en,33.046862,-117.258884
4.66644E+17,fire,San_Diego_40_mi_real,2014-05-14 18:20:24,2014-05-14 10:20:24,Encinitas fire from Santa Fe Rd. #EncinitasFire #BernardoFire @encinitasfire http://t.co/W3UdtilJa7,NicholasHamm,Nicholas Hammond,"San Francisco Bay Area, Ca",,"EncinitasFire, BernardoFire",FALSE,,748,338,447,Pacific Time (US & Canada),"33.040915,-117.277508",,,Twitter for iPhone,es,33.040915,-117.277508
4.66646E+17,fire,San_Diego_40_mi_real,2014-05-14 18:28:27,2014-05-14 10:28:27,"How to tell if you're in California: Fires everywhere. 
#SoCal #Fire #SantaAnaWinds",NerdyGeographer,Sarah Jones,San Diego,,"SoCal, Fire, SantaAnaWinds",FALSE,,202,436,1975,Pacific Time (US & Canada),"32.731928,-117.210678",,,Twitter for iPhone,en,32.731928,-117.210678
4.66646E+17,fire,San_Diego_40_mi_real,2014-05-14 18:28:48,2014-05-14 10:28:48,Carlsbad fire is horrible. People should be on the look out.,missmcarmelo,Maryfknjane,,,,FALSE,,201,128,19291,Alaska,"32.549289,-117.047012",,,Twitter for iPhone,en,32.549289,-117.047012
4.66647E+17,fire,San_Diego_40_mi_real,2014-05-14 18:31:05,2014-05-14 10:31:05,Oh nuthin...just waiting for the girls at the dentist/orthodontist... Reading fire updates and playing? http://t.co/c6hSjrxGiB,whendelicious,heyitsmewendy,back in Cali by popular demand,http://instagram.com/p/n_MTk1vmlH/,,FALSE,,77,246,721,Pacific Time (US & Canada),"33.016603,-117.078140",,,Instagram,en,33.016603,-117.07814
4.66647E+17,fire,San_Diego_40_mi_real,2014-05-14 18:32:08,2014-05-14 10:32:08,Fire burning in Carlsbad near park: Reports are coming into the CBS News 8 newsroom about a fire burning near... http://t.co/kSG2EJr1Zp,SanDiegoCP,San Diego CP,"San Diego, CA",http://dlvr.it/5gJpdm,,FALSE,,2906,5,103259,Eastern Time (US & Canada),"32.714312,-117.166272",,,dlvr.it,en,32.714312,-117.166272
4.66647E+17,fire,San_Diego_40_mi_real,2014-05-14 18:32:09,2014-05-14 10:32:09,#carlsbad fire is 5 north open? Can get off at Pointsettia?,JudiBonilla,Aging Expert ,San Diego,,carlsbad,FALSE,,1105,785,13063,Pacific Time (US & Canada),"32.726448,-117.145949",,,Twitter for iPhone,en,32.726448,-117.145949
4.66647E+17,fire,San_Diego_40_mi_real,2014-05-14 18:33:16,2014-05-14 10:33:16,#Help #carlsbad #fire Is the fwy open!,JudiBonilla,Aging Expert ,San Diego,,"Help, carlsbad, fire",FALSE,,1105,785,13063,Pacific Time (US & Canada),"32.726726,-117.146261",,,Twitter for iPhone,en,32.726726,-117.146261
4.66647E+17,fire,San_Diego_40_mi_real,2014-05-14 18:33:22,2014-05-14 10:33:22,Got that fire under control now there's 3 new ones in Carlsbad I mean damn,BrittnayJay,Brittany Johnson,,,,FALSE,,115,198,4230,Pacific Time (US & Canada),"32.908675,-117.132435",,,Twitter for iPhone,en,32.908675,-117.132435
4.66648E+17,fire,San_Diego_40_mi_real,2014-05-14 18:35:25,2014-05-14 10:35:25,Please Help  RT need info #carlsbad #fire is I5N open? Poinsettia?,JudiBonilla,Aging Expert ,San Diego,,"carlsbad, fire",FALSE,,1105,785,13063,Pacific Time (US & Canada),"32.726767,-117.146455",,,Twitter for iPhone,en,32.726767,-117.146455
4.66648E+17,fire,San_Diego_40_mi_real,2014-05-14 18:35:41,2014-05-14 10:35:41,"#BREAKING  Fire breaks out in Carlsbad, near Poinsettia &amp; Alicante.  We're headed there @fox5sandiego for updates @RaoulFOX5 @EricaFOX5",sharonchenfox5,Fox 5 Sharon Chen,San Diego,,BREAKING,FALSE,,883,331,1160,Pacific Time (US & Canada),"32.934369,-117.238062",,,Twitter for iPhone,en,32.934369,-117.238062
4.66648E+17,fire,San_Diego_40_mi_real,2014-05-14 18:35:42,2014-05-14 10:35:42,"There's a wild fire out here in San Diego.. Apparently that's not surprising, but I'm like ??",Natasha_VW,Natasha,San Diego ,,,FALSE,,256,325,4288,Central Time (US & Canada),"32.900665,-117.175949",,,Twitter for iPhone,en,32.900665,-117.175949
4.66648E+17,fire,San_Diego_40_mi_real,2014-05-14 18:37:24,2014-05-14 10:37:24,Have fun at school! I'm hanging out with the fire at Del Mar http://t.co/81pIfV8Eol,austinhurder,Austin Hur?,Tempe AZ,,,FALSE,,347,321,3087,Pacific Time (US & Canada),"32.962951,-117.268399",,,Twitter for iPhone,en,32.962951,-117.268399
4.6665E+17,fire,San_Diego_40_mi_real,2014-05-14 18:43:52,2014-05-14 10:43:52,One huge fire to four giant fires in San Diego from yesterday to today. Thousands of evacuations. My heart goes out to everyone affected??,taylordmoody,tay,"San Diego, CA",,,FALSE,,92,86,1828,Pacific Time (US & Canada),"32.799447,-117.240635",,,Twitter for iPhone,en,32.799447,-117.240635
4.6665E+17,fire,San_Diego_40_mi_real,2014-05-14 18:44:44,2014-05-14 10:44:44,"Avoid Carlsbad from Palomar to Poinsettia near El Camino Real.
Fire related traffic jam, including I-5",JeromeStocks,Jerome Stocks,Encinitas,,,FALSE,,272,513,943,,"33.046400,-117.259496",,,Twitter for iPhone,en,33.0464,-117.259496
4.66651E+17,fire,San_Diego_40_mi_real,2014-05-14 18:47:43,2014-05-14 10:47:43,Fire erupts near Palomar Airport in Carlsbad: The fire erupted near Poinsettia Lane and Cassia Road. Palomar... http://t.co/D9J9P55M2v,SanDiegoCP,San Diego CP,"San Diego, CA",http://dlvr.it/5gK2DV,,FALSE,1,2906,5,103259,Eastern Time (US & Canada),"32.714312,-117.166272",,,dlvr.it,en,32.714312,-117.166272
4.66651E+17,fire,San_Diego_40_mi_real,2014-05-14 18:48:34,2014-05-14 10:48:34,@taaylourx you can come be a refugee at my house. It's fire free,Cryskal,Eskimo,San Diego,,,FALSE,,1491,219,29904,Pacific Time (US & Canada),"32.718766,-117.035686",,4.66651E+17,Twitter for iPhone,en,32.718766,-117.035686
4.66651E+17,fire,San_Diego_40_mi_real,2014-05-14 18:49:02,2014-05-14 10:49:02,Don't know what's happening with that fire. No word on it,ClantonMatt,Matt Clanton,San Diego CA,,,FALSE,,1,7,92,,"33.004581,-117.109222",,,Twitter for iPhone,en,33.004581,-117.109222
4.66652E+17,fire,San_Diego_40_mi_real,2014-05-14 18:51:04,2014-05-14 10:51:04,Fire http://t.co/5loF1UNJuf,Torvus_Bog,Bog ,San Diego,,,FALSE,,354,195,22165,Pacific Time (US & Canada),"32.767866,-117.150523",,,Twitter for iPhone,und,32.767866,-117.150523
4.66652E+17,fire,San_Diego_40_mi_real,2014-05-14 18:51:19,2014-05-14 10:51:19,We are on #FIRE in #SanDiego!  Stay safe peeps!,geezyloueezy,B Johnson,North County San Diego,,"FIRE, SanDiego",FALSE,,665,951,3171,Pacific Time (US & Canada),"32.796891,-116.958970",,,Twitter for Android,en,32.796891,-116.95897
4.66652E+17,fire,San_Diego_40_mi_real,2014-05-14 18:52:57,2014-05-14 10:52:57,"i told seth ""pls die"" instead of good morning and now hes gona catch on fire and die im a bad person",chefelfy,?anal?queen?,,,,FALSE,2,219,128,10436,Pacific Time (US & Canada),"32.754051,-117.245734",,,Twitter for iPhone,en,32.754051,-117.245734
4.66653E+17,fire,San_Diego_40_mi_real,2014-05-14 18:54:03,2014-05-14 10:54:03,If a fire starts in Scripps again I'm gonna put that shit out,ItalianSUS,Luca,,,,FALSE,,162,208,15518,Pacific Time (US & Canada),"32.920744,-117.077832",,,Twitter for Android,en,32.920744,-117.077832
4.66654E+17,fire,San_Diego_40_mi_real,2014-05-14 19:00:23,2014-05-14 11:00:23,Praying for all those in Carlsbad! That is one nasty fire ???? hoping they contain it soon ??,RiSchroeder,?iley Schroeder,,,,FALSE,1,304,246,2009,Pacific Time (US & Canada),"32.956807,-117.225071",,,Twitter for iPhone,en,32.956807,-117.225071
4.66655E+17,fire,San_Diego_40_mi_real,2014-05-14 19:03:17,2014-05-14 11:03:17,"""We Didn't Start the Fire"" on repeat as SD  county burns to the ground. ??",AllThingsCastle,Alison Hunter,Sunny San Diego,,,FALSE,,63,127,7290,Pacific Time (US & Canada),"32.606287,-117.051204",,,Twitter for iPhone,en,32.606287,-117.051204
4.66655E+17,fire,San_Diego_40_mi_real,2014-05-14 19:04:37,2014-05-14 11:04:37,that Carlsbad fire is closing towards Legoland.... hopefully it will not reach the World famous park!!!,GKSportsOnLine,Greg GK Porter,San Diego California,,,FALSE,,509,2000,47746,Pacific Time (US & Canada),"32.583493,-117.092697",,,Twitter for Android,en,32.583493,-117.092697
4.66656E+17,fire,San_Diego_40_mi_real,2014-05-14 19:05:27,2014-05-14 11:05:27,Fire fire everywhere.... Be safe people,Ghostrite,Sean,"La Mesa, United States",,,FALSE,,64,153,2396,Pacific Time (US & Canada),"32.832610,-117.126330",,,Twitter for Windows Phone,en,32.83261,-117.12633
4.66656E+17,fire,San_Diego_40_mi_real,2014-05-14 19:05:49,2014-05-14 11:05:49,"View from Encinitas of the #poinsettia fire in Carlsbad, California. http://t.co/vS4rux02ed",JohnStandish136,John Standish,"San Diego, California",,poinsettia,FALSE,1,946,1710,1604,Pacific Time (US & Canada),"33.044616,-117.284568",,,Twitter for iPhone,en,33.044616,-117.284568
4.66656E+17,fire,San_Diego_40_mi_real,2014-05-14 19:08:28,2014-05-14 11:08:28,The fire is a block away from my aunts house,ItalianSUS,Luca,,,,FALSE,,162,208,15518,Pacific Time (US & Canada),"32.920752,-117.077891",,,Twitter for Android,en,32.920752,-117.077891
4.66657E+17,fire,San_Diego_40_mi_real,2014-05-14 19:09:27,2014-05-14 11:09:27,Half of Carlsbad is on fire ??,BergMavyb55,THE DEVIL'S REJECT,Encinitas CA,,,FALSE,,113,269,3642,,"33.044354,-117.250748",,,Twitter for iPhone,en,33.044354,-117.250748
4.66657E+17,fire,San_Diego_40_mi_real,2014-05-14 19:10:21,2014-05-14 11:10:21,Too hot outside. Brush fire across the street from my home.,kjtriplett,Kris Triplett,"Carlsbad, CA, USA",,,FALSE,,326,281,3461,Pacific Time (US & Canada),"32.991783,-117.261161",,,Twitter for Android,en,32.991783,-117.261161
4.66657E+17,fire,San_Diego_40_mi_real,2014-05-14 19:12:18,2014-05-14 11:12:18,"Funny stuff watching #poinsettia fire in Carlsbad CA. Local reporter trying to be a hero.
Hey Christian get the hell out u goober",amertrucker,Kevin Wright,TEXAS ,,poinsettia,FALSE,,513,891,2306,,"32.641103,-117.098823",,,Twitter for Android,en,32.641103,-117.098823
4.66658E+17,fire,San_Diego_40_mi_real,2014-05-14 19:13:41,2014-05-14 11:13:41,The carlsbad fire is crazy,marcosl_3,Markos,"San Diego, CA",,,FALSE,,279,260,5132,Pacific Time (US & Canada),"32.656432,-116.992853",,,Twitter for Android,en,32.656432,-116.992853
4.66658E+17,fire,San_Diego_40_mi_real,2014-05-14 19:13:58,2014-05-14 11:13:58,My uncle is the fire chief there. Hope everything turns for the better,marcosl_3,Markos,"San Diego, CA",,,FALSE,,279,260,5132,Pacific Time (US & Canada),"32.656432,-116.992853",,,Twitter for Android,en,32.656432,-116.992853
4.66658E+17,fire,San_Diego_40_mi_real,2014-05-14 19:14:02,2014-05-14 11:14:02,@MRPAPASMURF @_ThatsMoney fire started back up again. I am on my way to my wife's graduation so hopefully still have a house when i return,U_Mad_Bro42,U Mad Bro,"San Diego, CA ",,,FALSE,,728,328,18963,Pacific Time (US & Canada),"32.783025,-117.092585",,4.66658E+17,Twitter for iPhone,en,32.783025,-117.092585
4.6666E+17,fire,San_Diego_40_mi_real,2014-05-14 19:23:56,2014-05-14 11:23:56,"Fires in Pendleton, Carlsbad, and RB fire is smoking again. Seen from Miramar. #4sfire #santaanas #fireseason http://t.co/AcafQYtpUA",NinoZizzo,Nino Zizzo,San Diego,,"4sfire, santaanas, fireseason",FALSE,,29,26,55,,"32.897449,-117.165095",,,Twitter for iPhone,en,32.897449,-117.165095
4.6666E+17,fire,San_Diego_40_mi_real,2014-05-14 19:24:22,2014-05-14 11:24:22,These fires are starting to remind me of the fires in Oct. 2003. Scariest night of my life watching that fire come down the hill.,kevhilge,Kevin Hilgeman,"San Diego, CA",,,FALSE,,201,340,1743,Pacific Time (US & Canada),"32.711664,-117.158368",,,Twitter for iPhone,en,32.711664,-117.158368
4.6666E+17,fire,San_Diego_40_mi_real,2014-05-14 19:24:25,2014-05-14 11:24:25,Is it even fire season technically?,carlenesides,Carlene Sides,,,,FALSE,,90,169,70,Pacific Time (US & Canada),"32.959510,-117.265188",,,Twitter for iPhone,en,32.95951,-117.265188
4.6666E+17,fire,San_Diego_40_mi_real,2014-05-14 19:24:34,2014-05-14 11:24:34,LegoLand has even been evacuated. And another fire just started. Ugh SD..????,taylordmoody,tay,"San Diego, CA",,,FALSE,,92,86,1827,Pacific Time (US & Canada),"32.799449,-117.240879",,,Twitter for iPhone,en,32.799449,-117.240879
4.66662E+17,fire,San_Diego_40_mi_real,2014-05-14 19:29:12,2014-05-14 11:29:12,Fire in chula vista now,marcosl_3,Markos,"San Diego, CA",,,FALSE,1,279,260,5132,Pacific Time (US & Canada),"32.620937,-117.003924",,,Twitter for Android,it,32.620937,-117.003924
4.66662E+17,fire,San_Diego_40_mi_real,2014-05-14 19:30:07,2014-05-14 11:30:07,Carlsbad bush fire threatens houses.,juancamilog79,Juan Camilo Gallo,"San Diego, California",,,FALSE,,211,227,2220,Pacific Time (US & Canada),"32.682380,-117.055536",,,Twitter for Android,en,32.68238,-117.055536
4.66662E+17,fire,San_Diego_40_mi_real,2014-05-14 19:30:53,2014-05-14 11:30:53,"@contaminatrix Thanks, likewise if that?s ever the case. Not practical at the moment because the 5 is on fire at Pendleton though?",supraphonic,????,SD,,,FALSE,,405,1155,13817,Eastern Time (US & Canada),"32.769936,-117.125456",,4.66662E+17,Tweetbot for iOS,en,32.769936,-117.125456
4.66662E+17,fire,San_Diego_40_mi_real,2014-05-14 19:31:11,2014-05-14 11:31:11,The fire is too close to my job,MIZZCCBABI,CIARA,SAN DIEGO,,,FALSE,,56,69,423,Pacific Time (US & Canada),"32.783746,-116.961873",,,Twitter for iPhone,en,32.783746,-116.961873
4.66663E+17,fire,San_Diego_40_mi_real,2014-05-14 19:34:37,2014-05-14 11:34:37,Crews Battle Brush Fire Along I-5 Near Oceanside: Three northbound lanes of Interstate 5 were closed at Las... http://t.co/QuMwq4bVa5,SanDiegoCP,San Diego CP,"San Diego, CA",http://dlvr.it/5gKn1c,,FALSE,1,2906,5,103259,Eastern Time (US & Canada),"32.714312,-117.166272",,,dlvr.it,en,32.714312,-117.166272
4.66663E+17,fire,San_Diego_40_mi_real,2014-05-14 19:34:56,2014-05-14 11:34:56,"If your from San Diego you got two options for today, hit the beach or wait for a fire to come to a city near you!",Shanefromsantee,realshanekorhummel,San Diego #BillsMafia ,,,FALSE,,210,160,1645,,"32.854444,-116.980416",,,Twitter for iPhone,en,32.854444,-116.980416
4.66663E+17,fire,San_Diego_40_mi_real,2014-05-14 19:35:12,2014-05-14 11:35:12,@vicious696 and on fire!,meatservo80,Josh J.,San Diego,,,FALSE,,173,181,14297,Pacific Time (US & Canada),"33.009009,-117.099886",,4.66651E+17,PlumeÿforÿAndroid,en,33.009009,-117.099886
4.66663E+17,fire,San_Diego_40_mi_real,2014-05-14 19:36:05,2014-05-14 11:36:05,@ladyluck34 @vicious696 but then you might be scooped up and used to put out the fire.....,meatservo80,Josh J.,San Diego,,,FALSE,,173,181,14297,Pacific Time (US & Canada),"33.009009,-117.099886",,4.66651E+17,PlumeÿforÿAndroid,en,33.009009,-117.099886
4.66664E+17,fire,San_Diego_40_mi_real,2014-05-14 19:39:16,2014-05-14 11:39:16,Carlsbad fire taken from San Elijo hills. Epic photo. Scary fire. http://t.co/4KbmRAcQsw,frothylowsky,Carl Moczydlowsky,In the lineup,,,FALSE,1,421,625,3052,Pacific Time (US & Canada),"33.019906,-117.275711",,,Twitter for iPhone,en,33.019906,-117.275711
4.66664E+17,fire,San_Diego_40_mi_real,2014-05-14 19:39:45,2014-05-14 11:39:45,FUCK FIRE SEASON,barfchan,????,s a n   d i e g o,,,FALSE,,739,666,61999,Pacific Time (US & Canada),"32.910042,-117.121606",,,Twitter for iPhone,en,32.910042,-117.121606
4.66665E+17,fire,San_Diego_40_mi_real,2014-05-14 19:41:19,2014-05-14 11:41:19,@danielersss haha yeah small brush fire. Nothing that serious tho,marcosl_3,Markos,"San Diego, CA",,,FALSE,,279,260,5132,Pacific Time (US & Canada),"32.604033,-117.031435",,4.66664E+17,Twitter for Android,en,32.604033,-117.031435
4.66665E+17,fire,San_Diego_40_mi_real,2014-05-14 19:41:33,2014-05-14 11:41:33,Everyone in North County and elsewhere please be safe...keep up to speed on fire locations...? http://t.co/KZcO1nfSyh,NicholasSand,Nick Sandberg,San Diego,http://instagram.com/p/n_UXvdMi5B/,,FALSE,,392,470,528,,"32.715642,-117.162438",,,Instagram,en,32.715642,-117.162438
4.66665E+17,fire,San_Diego_40_mi_real,2014-05-14 19:42:41,2014-05-14 11:42:41,well the town that my school is in is on fire sooo,wes_kreeg,Wesley Kreeger,,,,FALSE,,98,82,2352,Atlantic Time (Canada),"32.744804,-117.130877",,,Twitter for iPhone,en,32.744804,-117.130877
4.66666E+17,fire,San_Diego_40_mi_real,2014-05-14 19:45:07,2014-05-14 11:45:07,"These reporters are all fucking dumb,  im surprised one hasn't burned yet running into the fire like an idiot",Pouya666,Pouya Gol,,,,FALSE,1,101,179,4806,,"32.972718,-117.094304",,,Twitter for Android,en,32.972718,-117.094304
4.66666E+17,fire,San_Diego_40_mi_real,2014-05-14 19:45:31,2014-05-14 11:45:31,RT @SDPOA: RT @SoCalFireEMS #TomahawkFire has jumped Ammunition Rd. Fire is taking off from there. Immed need for all available resources,CorporaCallosa,J.C. Cleaver,"San Diego, CA",,TomahawkFire,FALSE,,437,1563,7368,Pacific Time (US & Canada),"32.882423,-117.205215",,,Twitter for Android,en,32.882423,-117.205215
4.66666E+17,fire,San_Diego_40_mi_real,2014-05-14 19:46:01,2014-05-14 11:46:01,"Luna grill restaurant  @LunaGrill feeding the fire fighters , keep up the good work #BernardoFire #SanDiegoFire http://t.co/EkmVsf66kC",ifathie,M.R Fathie,,,"BernardoFire, SanDiegoFire",FALSE,5,153,719,137,Pacific Time (US & Canada),"32.811542,-116.918756",,,Twitter for iPhone,en,32.811542,-116.918756
4.66666E+17,fire,San_Diego_40_mi_real,2014-05-14 19:46:19,2014-05-14 11:46:19,I would cry if I saw my house on fire ?? #CarlsbadFire http://t.co/g5NAZ4xlfS,missmcarmelo,Maryfknjane,,,CarlsbadFire,FALSE,,201,128,19291,Alaska,"32.549351,-117.047029",,,Twitter for iPhone,en,32.549351,-117.047029
4.66666E+17,fire,San_Diego_40_mi_real,2014-05-14 19:47:56,2014-05-14 11:47:56,"""@BLMNIFC: The National Preparedness Level being elevated to 2. Wildland fire activity is increasing and large fires http://t.co/8VkzWJliHg""",saunieindiego,saunie ,"San Diego, California",http://fb.me/40GOFwrCg,,FALSE,1,845,729,50711,Pacific Time (US & Canada),"32.899232,-117.204596",,,Twitter for Android,en,32.899232,-117.204596
4.66667E+17,fire,San_Diego_40_mi_real,2014-05-14 19:49:49,2014-05-14 11:49:49,God bless these fire fighters right now man.,Blake2Raw,Blake,San Diego CA,,,FALSE,7,365,352,5965,Pacific Time (US & Canada),"32.944167,-117.147055",,,Twitter for iPhone,en,32.944167,-117.147055
4.66667E+17,fire,San_Diego_40_mi_real,2014-05-14 19:51:07,2014-05-14 11:51:07,Fire season has started early in Southern http://t.co/ZrwvMK5udl #evacuationplan,Ranch57Bill,Bill Groves,So Cal,http://tribkswb.files.wordpress.com/2014/05/carlsbadfire.jpg,evacuationplan,FALSE,,107,303,1954,,"33.045845,-116.874832",,,Twitter for iPhone,en,33.045845,-116.874832
4.66667E+17,fire,San_Diego_40_mi_real,2014-05-14 19:52:04,2014-05-14 11:52:04,bayparkfishco #firefighters #bernardofire #firefightersrock #sandiego #ilovesandiego #lunch #fire? http://t.co/iB2KUjVs4Q,delmargirl99,banita,"Del Mar, CA",http://instagram.com/p/n_VksPEGdx/,"firefighters, bernardofire, firefightersrock, sandiego, ilovesandiego, lunch, fire",FALSE,,205,665,2197,Pacific Time (US & Canada),"32.781580,-117.206640",,,Instagram,en,32.78158,-117.20664
4.66667E+17,fire,San_Diego_40_mi_real,2014-05-14 19:52:09,2014-05-14 11:52:09,"""@PriceCBS8: where I was 3 minutes ago for my live shot. ..fire in Carlsbad is moving fast! Please evacuate! http://t.co/kkDrAZkjnP""",jbolt17,John Boyken,San Diego,,,FALSE,,35,87,199,Pacific Time (US & Canada),"32.742008,-117.176579",,,Twitter for Android,en,32.742008,-117.176579
4.66669E+17,fire,San_Diego_40_mi_real,2014-05-14 19:58:01,2014-05-14 11:58:01,@gdarklighter I know that area very well. I used to live about a mile or so away from that fire.,bcline760,B. Cline,"San Diego, CA",,,FALSE,,305,327,24496,Pacific Time (US & Canada),"32.983070,-117.076494",,4.66665E+17,Twitter for Android,en,32.98307,-117.076494
4.66669E+17,fire,San_Diego_40_mi_real,2014-05-14 19:58:57,2014-05-14 11:58:57,Fire??,gabefonseca,Gabriel Fonseca,Sun Diego,,,FALSE,,194,347,8787,Pacific Time (US & Canada),"32.733749,-117.032192",,,Twitter for iPhone,und,32.733749,-117.032192
4.66669E+17,fire,San_Diego_40_mi_real,2014-05-14 19:59:53,2014-05-14 11:59:53,@nbcsandiego theres a fire in Fallbrook,Famous_J_619,Jorden Hemenway,"San Diego, CA ",,,FALSE,,114,522,421,,"32.774694,-117.015723",,,Twitter for Android,en,32.774694,-117.015723
4.6667E+17,fire,San_Diego_40_mi_real,2014-05-14 20:02:54,2014-05-14 12:02:54,Wow crazy fire in #carlsbad,Chee5ey,Chase,"San Diego, CA",,carlsbad,FALSE,,103,150,1275,,"32.741180,-117.115296",,,Twitter for Android,en,32.74118,-117.115296
4.6667E+17,fire,San_Diego_40_mi_real,2014-05-14 20:03:51,2014-05-14 12:03:51,@heyscan Try to get that rainfall here please. We're on fire. :-(,bcline760,B. Cline,"San Diego, CA",,,FALSE,,305,327,24496,Pacific Time (US & Canada),"32.983071,-117.076494",,4.66668E+17,Twitter for Android,en,32.983071,-117.076494
4.6667E+17,fire,San_Diego_40_mi_real,2014-05-14 20:03:59,2014-05-14 12:03:59,RT @KUSI_News: SD Fire-Rescue reports 30 structures damaged so far #CarlsbadFire #PoinsettiaFire,DavidFrerker,David Frerker,San Diego,,"CarlsbadFire, PoinsettiaFire",FALSE,,1489,1935,18177,Pacific Time (US & Canada),"32.836972,-117.255180",,4.6667E+17,Twitter for iPad,en,32.836972,-117.25518
4.66671E+17,fire,San_Diego_40_mi_real,2014-05-14 20:05:22,2014-05-14 12:05:22,"http://t.co/kpWDgXrvbV 
Video of the fire in Carlsbad! @CBS8 @KUSI_News @FoxNews",missmcarmelo,Maryfknjane,,http://instagram.com/p/n_M1_Uts05/,,FALSE,,201,128,19291,Alaska,"32.549296,-117.047068",,,Twitter for iPhone,en,32.549296,-117.047068
4.66672E+17,fire,San_Diego_40_mi_real,2014-05-14 20:10:07,2014-05-14 12:10:07,Shout out to CBS8's Steve Price for fighting the fire with a garden hose while reporting on it.,ericharmatz,Eric Harmatz,"San Diego, CA",,,FALSE,,515,272,38140,Eastern Time (US & Canada),"32.728962,-117.226842",,,Twitter for iPhone,en,32.728962,-117.226842
4.66672E+17,fire,San_Diego_40_mi_real,2014-05-14 20:11:20,2014-05-14 12:11:20,I remember the Harmony Grove fire years ago raging through. That shit was REALLY scary. See golden flames from the damn ocean.,bcline760,B. Cline,"San Diego, CA",,,FALSE,,305,327,24496,Pacific Time (US & Canada),"32.983071,-117.076493",,,Twitter for Android,en,32.983071,-117.076493
4.66673E+17,fire,San_Diego_40_mi_real,2014-05-14 20:13:44,2014-05-14 12:13:44,"There's literally a fire burning in the background and this reporter is harassing firefighters with questions. Wtf they're busy, fool!",cassidyreneej,Cassidy,,,,FALSE,,280,216,12040,Pacific Time (US & Canada),"32.874322,-117.217460",,,Twitter for iPhone,en,32.874322,-117.21746
4.66673E+17,fire,San_Diego_40_mi_real,2014-05-14 20:15:05,2014-05-14 12:15:05,@henrikschimmell don't know anythig about sendx specifically but offices there were evacuated. I don't think the fire made it overthe hill,arleenp11,Arleen Ponce,"San Diego, CA",,,FALSE,,81,202,614,Eastern Time (US & Canada),"32.992666,-117.271894",,4.6667E+17,Twitter for iPhone,en,32.992666,-117.271894
4.66673E+17,fire,San_Diego_40_mi_real,2014-05-14 20:15:53,2014-05-14 12:15:53,Even if the flames aren't near you - prepare because as we've seen they can start sparking anywhere #SanDiegoFire http://t.co/nrIyacWYFQ,heyneex,Nicole Alonso,"San Diego, CA",http://www.nbcsandiego.com/news/local/WATCH-Raw-Aerials-of-Bernardo-Fire-San-Diego-Cal-Fire--259139761.html,SanDiegoFire,FALSE,,637,663,160,Alaska,"32.926124,-117.057766",,,Twitter for iPhone,en,32.926124,-117.057766
4.66675E+17,fire,San_Diego_40_mi_real,2014-05-14 20:21:11,2014-05-14 12:21:11,I really don't know how to get out of this fire.... #dadcomehelp,oliviakalliopi,Olivia Varonos,,,dadcomehelp,FALSE,,265,434,4988,Pacific Time (US & Canada),"33.023778,-117.279035",,,Twitter for iPhone,en,33.023778,-117.279035
4.66675E+17,fire,San_Diego_40_mi_real,2014-05-14 20:22:05,2014-05-14 12:22:05,Brush fire burning east of Fallbrook: It broke out near State Route 76 and the Old Highway 395. http://t.co/iL8gXvmgsy,SanDiegoCP,San Diego CP,"San Diego, CA",http://dlvr.it/5gLRtL,,FALSE,,2905,5,103259,Eastern Time (US & Canada),"32.714312,-117.166272",,,dlvr.it,en,32.714312,-117.166272
4.66675E+17,fire,San_Diego_40_mi_real,2014-05-14 20:23:17,2014-05-14 12:23:17,Sd literally on fire,MsDiamondLife97,Chely?,,,,FALSE,,356,217,14108,Pacific Time (US & Canada),"32.920568,-117.124998",,,Twitter for iPhone,en,32.920568,-117.124998
4.66676E+17,fire,San_Diego_40_mi_real,2014-05-14 20:25:12,2014-05-14 12:25:12,We're so lucky that the fire that burnt down Max's family's next door neighbor's house didn't spread his house and that everyone is safe.,brianna8lamb,Brianna Lamb,"San Diego, Ca",,,FALSE,,289,278,1787,Alaska,"32.774308,-117.182406",,,Twitter for iPhone,en,32.774308,-117.182406
4.66676E+17,fire,San_Diego_40_mi_real,2014-05-14 20:25:57,2014-05-14 12:25:57,So everything is on Fire out here haha I'm scared to go anywhere??,LaniRockz,Lani Maka,Dancin on the moon,,,FALSE,,141,126,4612,Arizona,"32.676874,-117.078842",,,Twitter for iPhone,en,32.676874,-117.078842
4.66676E+17,fire,San_Diego_40_mi_real,2014-05-14 20:26:34,2014-05-14 12:26:34,112 still got that fire,KillmoeDee,Derrrrrick,"San Diego, Ca",,,FALSE,1,287,183,42850,Mountain Time (US & Canada),"32.688294,-117.117875",,,Twitter for iPhone,en,32.688294,-117.117875
4.66676E+17,fire,San_Diego_40_mi_real,2014-05-14 20:26:38,2014-05-14 12:26:38,"Camp Pendleton, Carlsbad, and Rancho Bernardo are all on fire. Stay safe, people. http://t.co/MUF2RObfo4",CarrieOh_77,Carrie O'Connell,"San Diego, CA",,,FALSE,,492,1032,11082,Pacific Time (US & Canada),"32.771789,-117.069720",,,Twitter for iPhone,en,32.771789,-117.06972
4.66677E+17,fire,San_Diego_40_mi_real,2014-05-14 20:30:52,2014-05-14 12:30:52,"@AdamGaneles no clue. I live in La Jolla by the beach and it is 90 degrees +, in the fire areas it's at 100+.. Winds 25 to 50 MPH",DavidFrerker,David Frerker,San Diego,,,FALSE,,1489,1935,18177,Pacific Time (US & Canada),"32.836975,-117.255181",,4.66677E+17,Twitter for iPad,en,32.836975,-117.255181
4.66678E+17,fire,San_Diego_40_mi_real,2014-05-14 20:34:36,2014-05-14 12:34:36,"For everyone wondering about my proximity to the fire in San Diego, it's about 30-40 miles north of me.  Hoping everyone there is safe!",OvietheBulldog,Ovie the Bulldog,"San Diego, CA",,,FALSE,2,2578,560,12007,Pacific Time (US & Canada),"32.900092,-117.207561",,,Twitter for iPhone,en,32.900092,-117.207561
4.66678E+17,fire,San_Diego_40_mi_real,2014-05-14 20:34:53,2014-05-14 12:34:53,Welp SD is on fire???? http://t.co/MwEfetVsov,kaila_hayes,Kaila Hayes,,,,FALSE,,64,88,1153,,"33.017347,-117.055217",,,Twitter for iPhone,en,33.017347,-117.055217
